municipality_code,city_name,city_name_normalized,municipality_type,latitude,longitude,department_code,code_ administrative_services,department_name
01005,Ambérieux-en-Dombes,AMBERIEUX EN DOMBES,municipality,45.9961799872,4.91227250796,01,200042497.0,Ain
01021,Ars-sur-Formans,ARS SUR FORMANS,municipality,45.9934611,4.82199649494,01,200042497.0,Ain
01030,Beauregard,BEAUREGARD,municipality,46.0008580204,4.75600664694,01,200042497.0,Ain
01105,Civrieux,CIVRIEUX,municipality,45.922467454,4.88633786877,01,200042497.0,Ain
01157,Fareins,FAREINS,municipality,46.020997974,4.7620080898,01,200042497.0,Ain
01166,Frans,FRANS,municipality,45.9939065077,4.78033196905,01,200042497.0,Ain
01238,Massieux,MASSIEUX,municipality,45.9094016817,4.82779660051,01,200042497.0,Ain
01250,Misérieux,MISERIEUX,municipality,45.9762325343,4.81028471711,01,200042497.0,Ain
01285,Parcieux,PARCIEUX,municipality,45.9184267932,4.82747423402,01,200042497.0,Ain
01318,Rancé,RANCE,municipality,45.9673905154,4.86343025951,01,200042497.0,Ain
01322,Reyrieux,REYRIEUX,municipality,45.9367652442,4.82840395968,01,200042497.0,Ain
01339,Saint-Bernard,SAINT BERNARD,municipality,45.9493830581,4.74276628471,01,200042497.0,Ain
01347,Saint-Didier-de-Formans,SAINT DIDIER DE FORMANS,municipality,45.9564926067,4.77766764875,01,200042497.0,Ain
01353,Sainte-Euphémie,SAINTE EUPHEMIE,municipality,45.9669798317,4.79478189169,01,200042497.0,Ain
01362,Saint-Jean-de-Thurigneux,SAINT JEAN DE THURIGNEUX,municipality,45.9598424323,4.89936410681,01,200042497.0,Ain
01398,Savigneux,SAVIGNEUX,municipality,45.997346828,4.8576200906,01,200042497.0,Ain
01423,Toussieux,TOUSSIEUX,municipality,45.959898291,4.82898610612,01,200042497.0,Ain
01427,Trévoux,TREVOUX,municipality,45.940671655,4.7714415007,01,200042497.0,Ain
01446,Villeneuve,VILLENEUVE,municipality,46.0319048788,4.85182526102,01,200042497.0,Ain
01027,Balan,BALAN,municipality,45.8311226453,5.10780019249,01,240100610.0,Ain
01032,Béligneux,BELIGNEUX,municipality,45.8591464826,5.13989505865,01,240100610.0,Ain
01049,La Boisse,BOISSE,municipality,45.8446213549,5.02783224111,01,240100610.0,Ain
01062,Bressolles,BRESSOLLES,municipality,45.869423064,5.1009428902,01,240100610.0,Ain
01142,Dagneux,DAGNEUX,municipality,45.8531616918,5.07289166803,01,240100610.0,Ain
01262,Montluel,MONTLUEL,municipality,45.8909006209,5.01987566185,01,240100610.0,Ain
01276,Niévroz,NIEVROZ,municipality,45.8222941077,5.05949629195,01,240100610.0,Ain
01297,Pizay,PIZAY,municipality,45.8928509581,5.08915465965,01,240100610.0,Ain
01342,Sainte-Croix,SAINTE CROIX,municipality,45.895522477,5.04935536228,01,240100610.0,Ain
01071,Cessy,CESSY,municipality,46.315689376,6.0779844362,01,240100750.0,Ain
01078,Challex,CHALLEX,municipality,46.1768358327,5.97115092939,01,240100750.0,Ain
01103,Chevry,CHEVRY,municipality,46.283152935,6.04707941462,01,240100750.0,Ain
01104,Chézery-Forens,CHEZERY FORENS,municipality,46.222573373,5.87248105275,01,240100750.0,Ain
01109,Collonges,COLLONGES,municipality,46.1419227898,5.90040256654,01,240100750.0,Ain
01135,Crozet,CROZET,municipality,46.2915659686,5.99510417092,01,240100750.0,Ain
01143,Divonne-les-Bains,DIVONNE LES BAINS,municipality,46.3756333495,6.1158647611,01,240100750.0,Ain
01153,Échenevex,ECHENEVEX,municipality,46.3160845207,6.01926187996,01,240100750.0,Ain
01158,Farges,FARGES,municipality,46.166230455,5.90019477201,01,240100750.0,Ain
01160,Ferney-Voltaire,FERNEY VOLTAIRE,municipality,46.2519789243,6.10826403805,01,240100750.0,Ain
01173,Gex,GEX,municipality,46.3471891747,6.04650555568,01,240100750.0,Ain
01180,Grilly,GRILLY,municipality,46.3318810665,6.11366767978,01,240100750.0,Ain
01209,Léaz,LEAZ,municipality,46.1086518044,5.87649017888,01,240100750.0,Ain
01210,Lélex,LELEX,municipality,46.2855010936,5.92927713771,01,240100750.0,Ain
01247,Mijoux,MIJOUX,municipality,46.3622451724,6.00902631941,01,240100750.0,Ain
01281,Ornex,ORNEX,municipality,46.2774557513,6.09454723599,01,240100750.0,Ain
01288,Péron,PERON,municipality,46.1913554154,5.91968751164,01,240100750.0,Ain
01308,Pougny,POUGNY,municipality,46.1450914685,5.95100479291,01,240100750.0,Ain
01313,Prévessin-Moëns,PREVESSIN MOENS,municipality,46.25827228,6.07223251859,01,240100750.0,Ain
01354,Saint-Genis-Pouilly,SAINT GENIS POUILLY,municipality,46.254539333,6.0362907345,01,240100750.0,Ain
01360,Saint-Jean-de-Gonville,SAINT JEAN DE GONVILLE,municipality,46.2178585727,5.94203093769,01,240100750.0,Ain
01397,Sauverny,SAUVERNY,municipality,46.3126908233,6.11043836433,01,240100750.0,Ain
01399,Ségny,SEGNY,municipality,46.2935928404,6.07287743792,01,240100750.0,Ain
01401,Sergy,SERGY,municipality,46.2626243003,5.98914553194,01,240100750.0,Ain
01419,Thoiry,THOIRY,municipality,46.2435475879,5.96506297987,01,240100750.0,Ain
01435,Versonnex,VERSONNEX,municipality,46.2997631425,6.10057952207,01,240100750.0,Ain
01436,Vesancy,VESANCY,municipality,46.3610768127,6.08470665475,01,240100750.0,Ain
01194,Jassans-Riottier,JASSANS RIOTTIER,municipality,45.9777239103,4.75984637871,01,200040590.0,Ain
01002,L'Abergement-de-Varey,ABERGEMENT DE VAREY,municipality,46.0091878776,5.42801696363,01,240100883.0,Ain
01004,Ambérieu-en-Bugey,AMBERIEU EN BUGEY,municipality,45.9608475114,5.3729257777,01,240100883.0,Ain
01007,Ambronay,AMBRONAY,municipality,46.0055913782,5.35760660735,01,240100883.0,Ain
01008,Ambutrix,AMBUTRIX,municipality,45.9367134524,5.3328092349,01,240100883.0,Ain
01013,Arandas,ARANDAS,municipality,45.8908155275,5.49870439091,01,240100883.0,Ain
01017,Argis,ARGIS,municipality,45.9337182132,5.48251100314,01,240100883.0,Ain
01037,Bénonces,BENONCES,municipality,45.8374974718,5.48285330863,01,240100883.0,Ain
01041,Bettant,BETTANT,municipality,45.9368718303,5.36667617009,01,240100883.0,Ain
01047,Blyes,BLYES,municipality,45.8469686113,5.25166055884,01,240100883.0,Ain
01054,Bourg-Saint-Christophe,BOURG SAINT CHRISTOPHE,municipality,45.8861934456,5.14349196896,01,240100883.0,Ain
01064,Briord,BRIORD,municipality,45.7708330939,5.48537461884,01,240100883.0,Ain
01076,Chaley,CHALEY,municipality,45.9533367734,5.53682505273,01,240100883.0,Ain
01088,Charnoz-sur-Ain,CHARNOZ SUR AIN,municipality,45.8736786869,5.2211032563,01,240100883.0,Ain
01089,Château-Gaillard,CHATEAU GAILLARD,municipality,45.9730390239,5.30754273532,01,240100883.0,Ain
01099,Chazey-sur-Ain,CHAZEY SUR AIN,municipality,45.8929448968,5.25528498524,01,240100883.0,Ain
01107,Cleyzieu,CLEYZIEU,municipality,45.902146623,5.43272695486,01,240100883.0,Ain
01111,Conand,CONAND,municipality,45.8834810846,5.47541328981,01,240100883.0,Ain
01149,Douvres,DOUVRES,municipality,45.984297392,5.37106901673,01,240100883.0,Ain
01156,Faramans,FARAMANS,municipality,45.9104942091,5.1249258559,01,240100883.0,Ain
01190,Innimond,INNIMOND,municipality,45.7919647191,5.57389398559,01,240100883.0,Ain
01198,Joyeux,JOYEUX,municipality,45.9499899849,5.10261326872,01,240100883.0,Ain
01202,Lagnieu,LAGNIEU,municipality,45.8917015798,5.32917518895,01,240100883.0,Ain
01213,Leyment,LEYMENT,municipality,45.9269989549,5.2947657235,01,240100883.0,Ain
01216,Lhuis,LHUIS,municipality,45.7444141403,5.53602066955,01,240100883.0,Ain
01219,Lompnas,LOMPNAS,municipality,45.8105943351,5.52320457866,01,240100883.0,Ain
01224,Loyettes,LOYETTES,municipality,45.7921564114,5.21770971647,01,240100883.0,Ain
01233,Marchamp,MARCHAMP,municipality,45.7738495266,5.54985181107,01,240100883.0,Ain
01244,Meximieux,MEXIMIEUX,municipality,45.9060530318,5.20404833653,01,240100883.0,Ain
01255,Montagnieu,MONTAGNIEU,municipality,45.799449019,5.46428608859,01,240100883.0,Ain
01260,Le Montellier,MONTELLIER,municipality,45.9287482486,5.07092815964,01,240100883.0,Ain
01277,Nivollet-Montgriffon,NIVOLLET MONTGRIFFON,municipality,45.9999448244,5.45847815374,01,240100883.0,Ain
01279,Oncieu,ONCIEU,municipality,45.9651165469,5.47146617499,01,240100883.0,Ain
01280,Ordonnaz,ORDONNAZ,municipality,45.8339690378,5.5395794296,01,240100883.0,Ain
01290,Pérouges,PEROUGES,municipality,45.8803945768,5.17955874977,01,240100883.0,Ain
01325,Rignieux-le-Franc,RIGNIEUX LE FRANC,municipality,45.9518762734,5.16936671105,01,240100883.0,Ain
01345,Saint-Denis-en-Bugey,SAINT DENIS EN BUGEY,municipality,45.9488551151,5.32367701698,01,240100883.0,Ain
01349,Saint-Éloi,SAINT ELOI,municipality,45.9322494861,5.15187041178,01,240100883.0,Ain
01361,Saint-Jean-de-Niost,SAINT JEAN DE NIOST,municipality,45.8405002569,5.21167430462,01,240100883.0,Ain
01366,Sainte-Julie,SAINTE JULIE,municipality,45.8819723176,5.28452304614,01,240100883.0,Ain
01378,Saint-Maurice-de-Gourdans,SAINT MAURICE DE GOURDANS,municipality,45.8200191939,5.16980415584,01,240100883.0,Ain
01379,Saint-Maurice-de-Rémens,SAINT MAURICE DE REMENS,municipality,45.9527471237,5.2708276475,01,240100883.0,Ain
01384,Saint-Rambert-en-Bugey,SAINT RAMBERT EN BUGEY,municipality,45.9504631708,5.44017084612,01,240100883.0,Ain
01386,Saint-Sorlin-en-Bugey,SAINT SORLIN EN BUGEY,municipality,45.886308438,5.37608915006,01,240100883.0,Ain
01390,Saint-Vulbas,SAINT VULBAS,municipality,45.8222315102,5.27019602929,01,240100883.0,Ain
01396,Sault-Brénaz,SAULT BRENAZ,municipality,45.8654038798,5.40416104083,01,240100883.0,Ain
01400,Seillonnaz,SEILLONNAZ,municipality,45.7976976614,5.49810658524,01,240100883.0,Ain
01403,Serrières-de-Briord,SERRIERES DE BRIORD,municipality,45.8133219416,5.44125880379,01,240100883.0,Ain
01411,Souclin,SOUCLIN,municipality,45.8781798572,5.43058627512,01,240100883.0,Ain
01416,Tenay,TENAY,municipality,45.922698278,5.51453923595,01,240100883.0,Ain
01421,Torcieu,TORCIEU,municipality,45.92125055,5.40400282244,01,240100883.0,Ain
01431,Vaux-en-Bugey,VAUX EN BUGEY,municipality,45.9201205456,5.36353184193,01,240100883.0,Ain
01444,Villebois,VILLEBOIS,municipality,45.8485624628,5.44711117486,01,240100883.0,Ain
01450,Villieu-Loyes-Mollon,VILLIEU LOYES MOLLON,municipality,45.932014998,5.22953071636,01,240100883.0,Ain
01033,Valserhône,VALSERHONE,municipality,46.1067901755,5.83202736464,01,240100891.0,Ain
01044,Billiat,BILLIAT,municipality,46.0791346715,5.76591818163,01,240100891.0,Ain
01081,Champfromier,CHAMPFROMIER,municipality,46.220365768,5.82233573131,01,240100891.0,Ain
01082,Chanay,CHANAY,municipality,46.005695299,5.76893393185,01,240100891.0,Ain
01114,Confort,CONFORT,municipality,46.1543700156,5.83319395258,01,240100891.0,Ain
01174,Giron,GIRON,municipality,46.2227121191,5.78049809256,01,240100891.0,Ain
01189,Injoux-Génissiat,INJOUX GENISSIAT,municipality,46.0497734524,5.75991363273,01,240100891.0,Ain
01215,Surjoux-Lhopital,SURJOUX LHOPITAL,municipality,46.0238143134,5.76236736492,01,240100891.0,Ain
01257,Montanges,MONTANGES,municipality,46.17325293,5.79006091307,01,240100891.0,Ain
01298,Plagne,PLAGNE,municipality,46.1883038423,5.71763811249,01,240100891.0,Ain
01357,Saint-Germain-de-Joux,SAINT GERMAIN DE JOUX,municipality,46.1821955394,5.74672259773,01,240100891.0,Ain
01448,Villes,VILLES,municipality,46.0954293058,5.7569250415,01,240100891.0,Ain
01042,Bey,BEY,municipality,46.2191748844,4.84642690241,01,200070555.0,Ain
01046,Biziat,BIZIAT,municipality,46.2266794269,4.94084673168,01,200070555.0,Ain
01084,Chanoz-Châtenay,CHANOZ CHATENAY,municipality,46.1861812234,5.02807719246,01,200070555.0,Ain
01096,Chaveyriat,CHAVEYRIAT,municipality,46.1991513767,5.0564069258,01,200070555.0,Ain
01123,Cormoranche-sur-Saône,CORMORANCHE SUR SAONE,municipality,46.2403530179,4.8276569593,01,200070555.0,Ain
01134,Crottet,CROTTET,municipality,46.283072336,4.87747971182,01,200070555.0,Ain
01136,Cruzilles-lès-Mépillat,CRUZILLES LES MEPILLAT,municipality,46.2220588715,4.8752193513,01,200070555.0,Ain
01179,Grièges,GRIEGES,municipality,46.2633634407,4.84621318847,01,200070555.0,Ain
01203,Laiz,LAIZ,municipality,46.2469919709,4.89933490972,01,200070555.0,Ain
01246,Mézériat,MEZERIAT,municipality,46.2423102101,5.04725416984,01,200070555.0,Ain
01291,Perrex,PERREX,municipality,46.2465065604,4.97464940331,01,200070555.0,Ain
01306,Pont-de-Veyle,PONT DE VEYLE,municipality,46.2637215091,4.88186068102,01,200070555.0,Ain
01334,Saint-André-d'Huiriat,SAINT ANDRE D HUIRIAT,municipality,46.2140960915,4.91291358797,01,200070555.0,Ain
01343,Saint-Cyr-sur-Menthon,SAINT CYR SUR MENTHON,municipality,46.2754005606,4.96757105158,01,200070555.0,Ain
01355,Saint-Genis-sur-Menthon,SAINT GENIS SUR MENTHON,municipality,46.2815955593,5.01311826405,01,200070555.0,Ain
01365,Saint-Jean-sur-Veyle,SAINT JEAN SUR VEYLE,municipality,46.2683632132,4.92198366998,01,200070555.0,Ain
01368,Saint-Julien-sur-Veyle,SAINT JULIEN SUR VEYLE,municipality,46.2014862081,4.959356342,01,200070555.0,Ain
01457,Vonnas,VONNAS,municipality,46.2168871367,4.99744373712,01,200070555.0,Ain
01006,Ambléon,AMBLEON,municipality,45.7494989044,5.59432017366,01,200040350.0,Ain
01009,Andert-et-Condon,ANDERT ET CONDON,municipality,45.7873565333,5.65788307924,01,200040350.0,Ain
01015,Arboys en Bugey,ARBOYS EN BUGEY,municipality,45.7237621545,5.65263086429,01,200040350.0,Ain
01019,Armix,ARMIX,municipality,45.8541838459,5.58357838695,01,200040350.0,Ain
01022,Artemare,ARTEMARE,municipality,45.8695891748,5.69065283943,01,200040350.0,Ain
01034,Belley,BELLEY,municipality,45.7494697806,5.68412365526,01,200040350.0,Ain
01036,Valromey-sur-Séran,VALROMEY SUR SERAN,municipality,45.8847475883,5.65115788055,01,200040350.0,Ain
01039,Béon,BEON,municipality,45.8568920052,5.75220315052,01,200040350.0,Ain
01058,Brégnier-Cordon,BREGNIER CORDON,municipality,45.6416854652,5.61653371,01,200040350.0,Ain
01061,Brens,BRENS,municipality,45.7135069062,5.68998154517,01,200040350.0,Ain
01066,La Burbanche,BURBANCHE,municipality,45.8598709332,5.54609714598,01,200040350.0,Ain
01073,Ceyzérieu,CEYZERIEU,municipality,45.8335530148,5.71933090966,01,200040350.0,Ain
01079,Champagne-en-Valromey,CHAMPAGNE EN VALROMEY,municipality,45.9316447397,5.69321890072,01,200040350.0,Ain
01098,Chazey-Bons,CHAZEY BONS,municipality,45.7925770617,5.68477063188,01,200040350.0,Ain
01100,Cheignieu-la-Balme,CHEIGNIEU LA BALME,municipality,45.8227204334,5.6050023969,01,200040350.0,Ain
01110,Colomieu,COLOMIEU,municipality,45.7361469025,5.62670101041,01,200040350.0,Ain
01116,Contrevoz,CONTREVOZ,municipality,45.8009403071,5.62087768159,01,200040350.0,Ain
01117,Conzieu,CONZIEU,municipality,45.7253102173,5.60442351043,01,200040350.0,Ain
01133,Cressin-Rochefort,CRESSIN ROCHEFORT,municipality,45.7826434885,5.76546256637,01,200040350.0,Ain
01138,Culoz,CULOZ,municipality,45.8559966843,5.78398308932,01,200040350.0,Ain
01141,Cuzieu,CUZIEU,municipality,45.8200002803,5.6765554896,01,200040350.0,Ain
01162,Flaxieu,FLAXIEU,municipality,45.8113298005,5.74459048839,01,200040350.0,Ain
01187,Haut Valromey,HAUT VALROMEY,municipality,46.0317412192,5.70267027388,01,200040350.0,Ain
01193,Izieu,IZIEU,municipality,45.6557496407,5.63909140794,01,200040350.0,Ain
01208,Lavours,LAVOURS,municipality,45.8108837933,5.77267317838,01,200040350.0,Ain
01227,Magnieu,MAGNIEU,municipality,45.7754050255,5.71540945601,01,200040350.0,Ain
01234,Marignieu,MARIGNIEU,municipality,45.8010384947,5.71570352924,01,200040350.0,Ain
01239,Massignieu-de-Rives,MASSIGNIEU DE RIVES,municipality,45.7571503942,5.7620535823,01,200040350.0,Ain
01268,Murs-et-Gélignieux,MURS ET GELIGNIEUX,municipality,45.6420014274,5.66039684889,01,200040350.0,Ain
01286,Parves et Nattages,PARVES ET NATTAGES,municipality,45.7437340183,5.73800737134,01,200040350.0,Ain
01294,Peyrieu,PEYRIEU,municipality,45.6762428663,5.67912809192,01,200040350.0,Ain
01302,Pollieu,POLLIEU,municipality,45.7965373468,5.74794515549,01,200040350.0,Ain
01310,Prémeyzel,PREMEYZEL,municipality,45.6806263123,5.64396081449,01,200040350.0,Ain
01329,Rossillon,ROSSILLON,municipality,45.8363854589,5.59926863007,01,200040350.0,Ain
01330,Ruffieu,RUFFIEU,municipality,46.0037108867,5.65322391497,01,200040350.0,Ain
01338,Groslée-Saint-Benoit,GROSLEE SAINT BENOIT,municipality,45.6891842277,5.5843972561,01,200040350.0,Ain
01358,Saint-Germain-les-Paroisses,SAINT GERMAIN LES PAROISSES,municipality,45.7709749249,5.61753440834,01,200040350.0,Ain
01372,Saint-Martin-de-Bavel,SAINT MARTIN DE BAVEL,municipality,45.848212674,5.67889099153,01,200040350.0,Ain
01415,Talissieu,TALISSIEU,municipality,45.8637167128,5.72090411074,01,200040350.0,Ain
01452,Virieu-le-Grand,VIRIEU LE GRAND,municipality,45.8464417872,5.63971940347,01,200040350.0,Ain
01453,Arvière-en-Valromey,ARVIERE EN VALROMEY,municipality,45.9063608209,5.73707051523,01,200040350.0,Ain
01454,Virignin,VIRIGNIN,municipality,45.7267387762,5.71282330936,01,200040350.0,Ain
01456,Vongnes,VONGNES,municipality,45.8129059524,5.72536666767,01,200040350.0,Ain
01370,Saint-Laurent-sur-Saône,SAINT LAURENT SUR SAONE,municipality,46.3051486294,4.83949202669,01,200070308.0,Ain
01056,Boyeux-Saint-Jérôme,BOYEUX SAINT JEROME,municipality,46.0363677631,5.46322744717,01,200029999.0,Ain
01068,Cerdon,CERDON,municipality,46.0720202633,5.47577586118,01,200029999.0,Ain
01077,Challes-la-Montagne,CHALLES LA MONTAGNE,municipality,46.1221539654,5.45755377201,01,200029999.0,Ain
01199,Jujurieux,JUJURIEUX,municipality,46.0497041467,5.41094771899,01,200029999.0,Ain
01200,Labalme,LABALME,municipality,46.0932491295,5.49438685213,01,200029999.0,Ain
01242,Mérignat,MERIGNAT,municipality,46.0648564341,5.44210660051,01,200029999.0,Ain
01273,Neuville-sur-Ain,NEUVILLE SUR AIN,municipality,46.0909654813,5.37349784691,01,200029999.0,Ain
01303,Poncin,PONCIN,municipality,46.089530586,5.41681266947,01,200029999.0,Ain
01304,Pont-d'Ain,PONT D AIN,municipality,46.0542077091,5.34703652618,01,200029999.0,Ain
01314,Priay,PRIAY,municipality,46.0197521486,5.28523353803,01,200029999.0,Ain
01331,Saint-Alban,SAINT ALBAN,municipality,46.0983335519,5.45573839846,01,200029999.0,Ain
01363,Saint-Jean-le-Vieux,SAINT JEAN LE VIEUX,municipality,46.0291437714,5.38252835538,01,200029999.0,Ain
01404,Serrières-sur-Ain,SERRIERES SUR AIN,municipality,46.1466977757,5.45023362942,01,200029999.0,Ain
01430,Varambon,VARAMBON,municipality,46.0433928197,5.2947944594,01,200029999.0,Ain
01011,Apremont,APREMONT,municipality,46.2054981558,5.65781475272,01,200042935.0,Ain
01012,Aranc,ARANC,municipality,46.0015344029,5.51130637511,01,200042935.0,Ain
01014,Arbent,ARBENT,municipality,46.2834936005,5.69061651221,01,200042935.0,Ain
01031,Bellignat,BELLIGNAT,municipality,46.2373497134,5.6360052884,01,200042935.0,Ain
01035,Belleydoux,BELLEYDOUX,municipality,46.2530316409,5.78471723698,01,200042935.0,Ain
01051,Bolozon,BOLOZON,municipality,46.1960338503,5.47095075411,01,200042935.0,Ain
01060,Brénod,BRENOD,municipality,46.0759940484,5.61418361314,01,200042935.0,Ain
01063,Brion,BRION,municipality,46.1686327301,5.54656422194,01,200042935.0,Ain
01067,Ceignes,CEIGNES,municipality,46.1256533435,5.49457379202,01,200042935.0,Ain
01080,Champdor-Corcelles,CHAMPDOR CORCELLES,municipality,46.0198844188,5.60008759722,01,200042935.0,Ain
01087,Charix,CHARIX,municipality,46.1856344066,5.6811896084,01,200042935.0,Ain
01101,Chevillard,CHEVILLARD,municipality,46.1103512578,5.58116056005,01,200042935.0,Ain
01112,Condamine,CONDAMINE,municipality,46.105831161,5.55568206762,01,200042935.0,Ain
01121,Corlier,CORLIER,municipality,46.0336885573,5.49635755029,01,200042935.0,Ain
01148,Dortan,DORTAN,municipality,46.3133221173,5.64146584117,01,200042935.0,Ain
01152,Échallon,ECHALLON,municipality,46.2271364137,5.73330448395,01,200042935.0,Ain
01155,Évosges,EVOSGES,municipality,45.965147537,5.50283599885,01,200042935.0,Ain
01170,Béard-Géovreissiat,BEARD GEOVREISSIAT,municipality,46.1896733539,5.55139781353,01,200042935.0,Ain
01171,Géovreisset,GEOVREISSET,municipality,46.2508621615,5.61271973915,01,200042935.0,Ain
01181,Groissiat,GROISSIAT,municipality,46.2260039429,5.61095413441,01,200042935.0,Ain
01185,Plateau d'Hauteville,PLATEAU D HAUTEVILLE,municipality,45.9696520061,5.57627261783,01,200042935.0,Ain
01191,Izenave,IZENAVE,municipality,46.0381623415,5.52447901164,01,200042935.0,Ain
01192,Izernore,IZERNORE,municipality,46.2179780137,5.56258251719,01,200042935.0,Ain
01204,Le Poizat-Lalleyriat,POIZAT LALLEYRIAT,municipality,46.1479592076,5.71829194244,01,200042935.0,Ain
01206,Lantenay,LANTENAY,municipality,46.0544405897,5.54127421165,01,200042935.0,Ain
01214,Leyssard,LEYSSARD,municipality,46.1624187428,5.47633297491,01,200042935.0,Ain
01228,Maillat,MAILLAT,municipality,46.1201642836,5.52854394238,01,200042935.0,Ain
01237,Martignat,MARTIGNAT,municipality,46.2030768095,5.61384033805,01,200042935.0,Ain
01240,Matafelon-Granges,MATAFELON GRANGES,municipality,46.2565319445,5.53958933702,01,200042935.0,Ain
01265,Montréal-la-Cluse,MONTREAL LA CLUSE,municipality,46.1795688194,5.59510550127,01,200042935.0,Ain
01267,Nurieux-Volognat,NURIEUX VOLOGNAT,municipality,46.1830720992,5.51435812316,01,200042935.0,Ain
01269,Nantua,NANTUA,municipality,46.1537845403,5.61352793799,01,200042935.0,Ain
01274,Les Neyrolles,NEYROLLES,municipality,46.1342937114,5.63714517869,01,200042935.0,Ain
01282,Outriaz,OUTRIAZ,municipality,46.067796636,5.55697547429,01,200042935.0,Ain
01283,Oyonnax,OYONNAX,municipality,46.2605435859,5.65344320923,01,200042935.0,Ain
01293,Peyriat,PEYRIAT,municipality,46.1498184067,5.50572312284,01,200042935.0,Ain
01307,Port,PORT,municipality,46.155963139,5.57615832883,01,200042935.0,Ain
01311,Prémillieu,PREMILLIEU,municipality,45.876457149,5.56475010385,01,200042935.0,Ain
01373,Saint-Martin-du-Frêne,SAINT MARTIN DU FRENE,municipality,46.135983782,5.57106016428,01,200042935.0,Ain
01392,Samognat,SAMOGNAT,municipality,46.2648715781,5.58607689306,01,200042935.0,Ain
01410,Sonthonnax-la-Montagne,SONTHONNAX LA MONTAGNE,municipality,46.2229768712,5.50566888767,01,200042935.0,Ain
01441,Vieu-d'Izenave,VIEU D IZENAVE,municipality,46.0853386653,5.54922100161,01,200042935.0,Ain
01043,Beynost,BEYNOST,municipality,45.8390325448,4.99738002182,01,240100800.0,Ain
01249,Miribel,MIRIBEL,municipality,45.8442099203,4.94106746787,01,240100800.0,Ain
01275,Neyron,NEYRON,municipality,45.8184192468,4.9309045685,01,240100800.0,Ain
01376,Saint-Maurice-de-Beynost,SAINT MAURICE DE BEYNOST,municipality,45.8343709108,4.97726215174,01,240100800.0,Ain
01418,Thil,THIL,municipality,45.8169214201,5.0184098869,01,240100800.0,Ain
01424,Tramoyes,TRAMOYES,municipality,45.8745670311,4.9639268325,01,240100800.0,Ain
01010,Anglefort,ANGLEFORT,municipality,45.9093715116,5.79516005674,01,200070852.0,Ain
01118,Corbonod,CORBONOD,municipality,45.9659473187,5.78961970355,01,200070852.0,Ain
01407,Seyssel,SEYSSEL,municipality,45.9484118176,5.82616979887,01,200070852.0,Ain
01024,Attignat,ATTIGNAT,municipality,46.2861802203,5.1795233845,01,200071751.0,Ain
01029,Beaupont,BEAUPONT,municipality,46.4288360203,5.26003405676,01,200071751.0,Ain
01038,Bény,BENY,municipality,46.3188629218,5.28253433405,01,200071751.0,Ain
01040,Béréziat,BEREZIAT,municipality,46.3674371012,5.04021655965,01,200071751.0,Ain
01053,Bourg-en-Bresse,BOURG EN BRESSE,municipality,46.2051520382,5.24602125501,01,200071751.0,Ain
01065,Buellas,BUELLAS,municipality,46.2104135162,5.14487465017,01,200071751.0,Ain
01069,Certines,CERTINES,municipality,46.1337950959,5.26239539372,01,200071751.0,Ain
01072,Ceyzériat,CEYZERIAT,municipality,46.1832170988,5.32007207542,01,200071751.0,Ain
01095,Nivigne et Suran,NIVIGNE ET SURAN,municipality,46.2750157946,5.41649423093,01,200071751.0,Ain
01106,Cize,CIZE,municipality,46.2003848172,5.45082526739,01,200071751.0,Ain
01108,Coligny,COLIGNY,municipality,46.3866637865,5.3308227014,01,200071751.0,Ain
01115,Confrançon,CONFRANCON,municipality,46.270304175,5.05775217893,01,200071751.0,Ain
01124,Cormoz,CORMOZ,municipality,46.4336632942,5.22181275755,01,200071751.0,Ain
01125,Corveissiat,CORVEISSIAT,municipality,46.2505107235,5.47152467919,01,200071751.0,Ain
01127,Courmangoux,COURMANGOUX,municipality,46.3267864521,5.35558241812,01,200071751.0,Ain
01128,Courtes,COURTES,municipality,46.4570082032,5.11128546723,01,200071751.0,Ain
01130,Bresse Vallons,BRESSE VALLONS,municipality,46.3130831891,5.17796707174,01,200071751.0,Ain
01139,Curciat-Dongalon,CURCIAT DONGALON,municipality,46.4885456881,5.16344336837,01,200071751.0,Ain
01140,Curtafond,CURTAFOND,municipality,46.273150382,5.1020896267,01,200071751.0,Ain
01145,Dompierre-sur-Veyle,DOMPIERRE SUR VEYLE,municipality,46.0667883703,5.21665199666,01,200071751.0,Ain
01147,Domsure,DOMSURE,municipality,46.4244066427,5.29313479651,01,200071751.0,Ain
01150,Drom,DROM,municipality,46.2196603059,5.36799994918,01,200071751.0,Ain
01151,Druillat,DRUILLAT,municipality,46.067579544,5.29361666429,01,200071751.0,Ain
01163,Foissiat,FOISSIAT,municipality,46.3784759782,5.18483641417,01,200071751.0,Ain
01177,Grand-Corent,GRAND CORENT,municipality,46.207387937,5.43318666027,01,200071751.0,Ain
01184,Hautecourt-Romanèche,HAUTECOURT ROMANECHE,municipality,46.1611241927,5.42944457639,01,200071751.0,Ain
01195,Jasseron,JASSERON,municipality,46.2150037064,5.31215372338,01,200071751.0,Ain
01196,Jayat,JAYAT,municipality,46.3660828991,5.11429701617,01,200071751.0,Ain
01197,Journans,JOURNANS,municipality,46.1464982407,5.33452833151,01,200071751.0,Ain
01211,Lent,LENT,municipality,46.1160216305,5.20200684747,01,200071751.0,Ain
01212,Lescheroux,LESCHEROUX,municipality,46.4114892731,5.15107164478,01,200071751.0,Ain
01229,Malafretaz,MALAFRETAZ,municipality,46.3295545661,5.14386299599,01,200071751.0,Ain
01230,Mantenay-Montlin,MANTENAY MONTLIN,municipality,46.4302754511,5.10675899732,01,200071751.0,Ain
01232,Marboz,MARBOZ,municipality,46.3434312497,5.24374534963,01,200071751.0,Ain
01236,Marsonnas,MARSONNAS,municipality,46.3409117711,5.06434294764,01,200071751.0,Ain
01241,Meillonnas,MEILLONNAS,municipality,46.244997627,5.33594738489,01,200071751.0,Ain
01245,Bohas-Meyriat-Rignat,BOHAS MEYRIAT RIGNAT,municipality,46.1427060662,5.3780109646,01,200071751.0,Ain
01254,Montagnat,MONTAGNAT,municipality,46.1686969123,5.27962107938,01,200071751.0,Ain
01259,Montcet,MONTCET,municipality,46.219333227,5.11149132074,01,200071751.0,Ain
01264,Montracol,MONTRACOL,municipality,46.1867200301,5.11706011755,01,200071751.0,Ain
01266,Montrevel-en-Bresse,MONTREVEL EN BRESSE,municipality,46.3252811442,5.11295966315,01,200071751.0,Ain
01289,Péronnas,PERONNAS,municipality,46.1711903413,5.21802169564,01,200071751.0,Ain
01296,Pirajoux,PIRAJOUX,municipality,46.385801285,5.27417594024,01,200071751.0,Ain
01301,Polliat,POLLIAT,municipality,46.2463108642,5.13794412439,01,200071751.0,Ain
01309,Pouillat,POUILLAT,municipality,46.3219301481,5.42318000482,01,200071751.0,Ain
01317,Ramasse,RAMASSE,municipality,46.1905550894,5.35572056985,01,200071751.0,Ain
01321,Revonnas,REVONNAS,municipality,46.1615355815,5.33543916388,01,200071751.0,Ain
01336,Saint-André-sur-Vieux-Jonc,SAINT ANDRE SUR VIEUX JONC,municipality,46.1492410532,5.14175200148,01,200071751.0,Ain
01344,Saint-Denis-lès-Bourg,SAINT DENIS LES BOURG,municipality,46.2111998453,5.18462806771,01,200071751.0,Ain
01346,Saint-Didier-d'Aussiat,SAINT DIDIER D AUSSIAT,municipality,46.3069992095,5.05820697692,01,200071751.0,Ain
01350,Saint-Étienne-du-Bois,SAINT ETIENNE DU BOIS,municipality,46.2749447261,5.28428557632,01,200071751.0,Ain
01364,Saint-Jean-sur-Reyssouze,SAINT JEAN SUR REYSSOUZE,municipality,46.3972479854,5.06297763777,01,200071751.0,Ain
01367,Saint-Julien-sur-Reyssouze,SAINT JULIEN SUR REYSSOUZE,municipality,46.3997655501,5.10354296019,01,200071751.0,Ain
01369,Saint-Just,SAINT JUST,municipality,46.1929758576,5.28494181398,01,200071751.0,Ain
01374,Saint-Martin-du-Mont,SAINT MARTIN DU MONT,municipality,46.1061500835,5.32551470817,01,200071751.0,Ain
01375,Saint-Martin-le-Châtel,SAINT MARTIN LE CHATEL,municipality,46.291445874,5.12291715091,01,200071751.0,Ain
01380,Saint-Nizier-le-Bouchoux,SAINT NIZIER LE BOUCHOUX,municipality,46.4528537121,5.1759906585,01,200071751.0,Ain
01385,Saint-Rémy,SAINT REMY,municipality,46.1846642149,5.16771354778,01,200071751.0,Ain
01387,Saint-Sulpice,SAINT SULPICE,municipality,46.3209806116,5.04148389346,01,200071751.0,Ain
01388,Saint-Trivier-de-Courtes,SAINT TRIVIER DE COURTES,municipality,46.4612969335,5.06679195727,01,200071751.0,Ain
01391,Salavre,SALAVRE,municipality,46.3635396668,5.34742387197,01,200071751.0,Ain
01405,Servas,SERVAS,municipality,46.1385540577,5.17887070992,01,200071751.0,Ain
01406,Servignat,SERVIGNAT,municipality,46.4346497878,5.05559973107,01,200071751.0,Ain
01408,Simandre-sur-Suran,SIMANDRE SUR SURAN,municipality,46.2340471594,5.42240815305,01,200071751.0,Ain
01422,Tossiat,TOSSIAT,municipality,46.1384790158,5.30400055922,01,200071751.0,Ain
01425,La Tranclière,TRANCLIERE,municipality,46.0970027075,5.26099875456,01,200071751.0,Ain
01426,Val-Revermont,VAL REVERMONT,municipality,46.2803281838,5.36083165162,01,200071751.0,Ain
01429,Vandeins,VANDEINS,municipality,46.217806795,5.08189056957,01,200071751.0,Ain
01432,Verjon,VERJON,municipality,46.3459093717,5.34853019646,01,200071751.0,Ain
01433,Vernoux,VERNOUX,municipality,46.4848229774,5.10590413121,01,200071751.0,Ain
01437,Vescours,VESCOURS,municipality,46.4743960759,5.02617426573,01,200071751.0,Ain
01445,Villemotier,VILLEMOTIER,municipality,46.3458538978,5.31036160991,01,200071751.0,Ain
01447,Villereversure,VILLEREVERSURE,municipality,46.1926750369,5.3947679407,01,200071751.0,Ain
01451,Viriat,VIRIAT,municipality,46.2508985632,5.22302249216,01,200071751.0,Ain
01001,L'Abergement-Clémenciat,ABERGEMENT CLEMENCIAT,municipality,46.1534255214,4.92611354223,01,200069193.0,Ain
01028,Baneins,BANEINS,municipality,46.1141214445,4.90146475101,01,200069193.0,Ain
01045,Birieux,BIRIEUX,municipality,45.9533995502,5.03666479984,01,200069193.0,Ain
01052,Bouligneux,BOULIGNEUX,municipality,46.0232774841,4.99252709276,01,200069193.0,Ain
01074,Chalamont,CHALAMONT,municipality,46.0076491739,5.16936568,01,200069193.0,Ain
01083,Chaneins,CHANEINS,municipality,46.0934984191,4.85473364691,01,200069193.0,Ain
01085,La Chapelle-du-Châtelard,CHAPELLE DU CHATELARD,municipality,46.0744536905,5.02162055898,01,200069193.0,Ain
01090,Châtenay,CHATENAY,municipality,46.0259402155,5.2048590395,01,200069193.0,Ain
01092,Châtillon-la-Palud,CHATILLON LA PALUD,municipality,45.9748017433,5.2416027725,01,200069193.0,Ain
01093,Châtillon-sur-Chalaronne,CHATILLON SUR CHALARONNE,municipality,46.1232390685,4.95810003714,01,200069193.0,Ain
01113,Condeissiat,CONDEISSIAT,municipality,46.1538469834,5.08437171701,01,200069193.0,Ain
01129,Crans,CRANS,municipality,45.9663793103,5.19490390871,01,200069193.0,Ain
01146,Dompierre-sur-Chalaronne,DOMPIERRE SUR CHALARONNE,municipality,46.1415406621,4.90141714714,01,200069193.0,Ain
01207,Lapeyrouse,LAPEYROUSE,municipality,45.9859131165,4.98196682865,01,200069193.0,Ain
01235,Marlieux,MARLIEUX,municipality,46.0549073186,5.0741150816,01,200069193.0,Ain
01248,Mionnay,MIONNAY,municipality,45.8955939299,4.92416967439,01,200069193.0,Ain
01261,Monthieux,MONTHIEUX,municipality,45.9622791838,4.94555984534,01,200069193.0,Ain
01272,Neuville-les-Dames,NEUVILLE LES DAMES,municipality,46.1567753049,5.00942432434,01,200069193.0,Ain
01299,Le Plantay,PLANTAY,municipality,46.0230264227,5.08912046926,01,200069193.0,Ain
01319,Relevant,RELEVANT,municipality,46.0843657897,4.94176845356,01,200069193.0,Ain
01328,Romans,ROMANS,municipality,46.1237520756,5.0217131176,01,200069193.0,Ain
01333,Saint-André-de-Corcy,SAINT ANDRE DE CORCY,municipality,45.927001954,4.95373324492,01,200069193.0,Ain
01335,Saint-André-le-Bouchoux,SAINT ANDRE LE BOUCHOUX,municipality,46.1131399612,5.0802376895,01,200069193.0,Ain
01356,Saint-Georges-sur-Renon,SAINT GEORGES SUR RENON,municipality,46.1037951263,5.03001967494,01,200069193.0,Ain
01359,Saint-Germain-sur-Renon,SAINT GERMAIN SUR RENON,municipality,46.0797285417,5.06090903982,01,200069193.0,Ain
01371,Saint-Marcel,SAINT MARCEL,municipality,45.9485803654,4.9896671017,01,200069193.0,Ain
01381,Saint-Nizier-le-Désert,SAINT NIZIER LE DESERT,municipality,46.052861561,5.14246131764,01,200069193.0,Ain
01382,Sainte-Olive,SAINTE OLIVE,municipality,46.0142006121,4.93624894982,01,200069193.0,Ain
01383,Saint-Paul-de-Varax,SAINT PAUL DE VARAX,municipality,46.0956691617,5.12762470203,01,200069193.0,Ain
01389,Saint-Trivier-sur-Moignans,SAINT TRIVIER SUR MOIGNANS,municipality,46.0618477991,4.90158948884,01,200069193.0,Ain
01393,Sandrans,SANDRANS,municipality,46.0656961548,4.98282673172,01,200069193.0,Ain
01412,Sulignat,SULIGNAT,municipality,46.1735383313,4.95772382526,01,200069193.0,Ain
01428,Valeins,VALEINS,municipality,46.1146467438,4.86551696868,01,200069193.0,Ain
01434,Versailleux,VERSAILLEUX,municipality,45.9854373478,5.11204819151,01,200069193.0,Ain
01443,Villars-les-Dombes,VILLARS LES DOMBES,municipality,45.9927150222,5.04507856642,01,200069193.0,Ain
01449,Villette-sur-Ain,VILLETTE SUR AIN,municipality,46.0099989032,5.25214547187,01,200069193.0,Ain
01016,Arbigny,ARBIGNY,municipality,46.4776762988,4.9599416863,01,200071371.0,Ain
01023,Asnières-sur-Saône,ASNIERES SUR SAONE,municipality,46.3857281418,4.88387478623,01,200071371.0,Ain
01025,Bâgé-Dommartin,BAGE DOMMARTIN,municipality,46.3233203302,4.9528678933,01,200071371.0,Ain
01026,Bâgé-le-Châtel,BAGE LE CHATEL,municipality,46.3077069231,4.92862084189,01,200071371.0,Ain
01050,Boissey,BOISSEY,municipality,46.3727973545,4.9989764059,01,200071371.0,Ain
01057,Boz,BOZ,municipality,46.4051688134,4.9135797178,01,200071371.0,Ain
01094,Chavannes-sur-Reyssouze,CHAVANNES SUR REYSSOUZE,municipality,46.4379785193,5.00693749662,01,200071371.0,Ain
01102,Chevroux,CHEVROUX,municipality,46.38249255,4.96288275972,01,200071371.0,Ain
01159,Feillens,FEILLENS,municipality,46.3365833672,4.88507050971,01,200071371.0,Ain
01175,Gorrevod,GORREVOD,municipality,46.414943437,4.95120595427,01,200071371.0,Ain
01231,Manziat,MANZIAT,municipality,46.3643830585,4.90242777155,01,200071371.0,Ain
01284,Ozan,OZAN,municipality,46.3867168877,4.91805840196,01,200071371.0,Ain
01305,Pont-de-Vaux,PONT DE VAUX,municipality,46.4422864477,4.92862459427,01,200071371.0,Ain
01320,Replonges,REPLONGES,municipality,46.3077356023,4.8746938271,01,200071371.0,Ain
01323,Reyssouze,REYSSOUZE,municipality,46.4285569061,4.91285056272,01,200071371.0,Ain
01332,Saint-André-de-Bâgé,SAINT ANDRE DE BAGE,municipality,46.298541568,4.91411565769,01,200071371.0,Ain
01337,Saint-Bénigne,SAINT BENIGNE,municipality,46.4519173207,4.95309825903,01,200071371.0,Ain
01352,Saint-Étienne-sur-Reyssouze,SAINT ETIENNE SUR REYSSOUZE,municipality,46.4030398952,5.00605581573,01,200071371.0,Ain
01402,Sermoyer,SERMOYER,municipality,46.4981991944,4.97856020441,01,200071371.0,Ain
01439,Vésines,VESINES,municipality,46.3593397751,4.86265852202,01,200071371.0,Ain
01075,Chaleins,CHALEINS,municipality,46.0340545373,4.79853838574,01,200070118.0,Ain
01165,Francheleins,FRANCHELEINS,municipality,46.0735946256,4.81293575559,01,200070118.0,Ain
01167,Garnerans,GARNERANS,municipality,46.2136224825,4.82843188743,01,200070118.0,Ain
01169,Genouilleux,GENOUILLEUX,municipality,46.1201611728,4.79288195016,01,200070118.0,Ain
01183,Guéreins,GUEREINS,municipality,46.106624674,4.78159420118,01,200070118.0,Ain
01188,Illiat,ILLIAT,municipality,46.1866986838,4.88840344003,01,200070118.0,Ain
01225,Lurcy,LURCY,municipality,46.061730034,4.78075207026,01,200070118.0,Ain
01243,Messimy-sur-Saône,MESSIMY SUR SAONE,municipality,46.0472670758,4.75935643933,01,200070118.0,Ain
01252,Mogneneins,MOGNENEINS,municipality,46.1446696076,4.820110702,01,200070118.0,Ain
01258,Montceaux,MONTCEAUX,municipality,46.0962893261,4.80453564172,01,200070118.0,Ain
01263,Montmerle-sur-Saône,MONTMERLE SUR SAONE,municipality,46.0849573236,4.7608579486,01,200070118.0,Ain
01295,Peyzieux-sur-Saône,PEYZIEUX SUR SAONE,municipality,46.1226331853,4.82243226719,01,200070118.0,Ain
01348,Saint-Didier-sur-Chalaronne,SAINT DIDIER SUR CHALARONNE,municipality,46.1840408682,4.81645666173,01,200070118.0,Ain
01351,Saint-Étienne-sur-Chalaronne,SAINT ETIENNE SUR CHALARONNE,municipality,46.1468059584,4.86696454244,01,200070118.0,Ain
01420,Thoissey,THOISSEY,municipality,46.1700943481,4.79387095814,01,200070118.0,Ain
02005,Aguilcourt,AGUILCOURT,municipality,49.393650796,3.96803679426,02,240200576.0,Aisne
02013,Amifontaine,AMIFONTAINE,municipality,49.498787026,3.92278993322,02,240200576.0,Aisne
02073,Berry-au-Bac,BERRY AU BAC,municipality,49.4084985083,3.8985497785,02,240200576.0,Aisne
02076,Bertricourt,BERTRICOURT,municipality,49.3975285682,4.01146178698,02,240200576.0,Aisne
02097,Boncourt,BONCOURT,municipality,49.6264861998,3.956447719,02,240200576.0,Aisne
02104,Bouffignereux,BOUFFIGNEREUX,municipality,49.3788374998,3.84626014622,02,240200576.0,Aisne
02133,Bucy-lès-Pierrepont,BUCY LES PIERREPONT,municipality,49.6467998089,3.90358311553,02,240200576.0,Aisne
02171,Chaudardes,CHAUDARDES,municipality,49.3962562981,3.78942153696,02,240200576.0,Aisne
02189,Chivres-en-Laonnois,CHIVRES EN LAONNOIS,municipality,49.6268606782,3.85603255601,02,240200576.0,Aisne
02208,Concevreux,CONCEVREUX,municipality,49.3764478648,3.78830446161,02,240200576.0,Aisne
02211,Condé-sur-Suippe,CONDE SUR SUIPPE,municipality,49.4138370327,3.94498449027,02,240200576.0,Aisne
02218,Coucy-lès-Eppes,COUCY LES EPPES,municipality,49.5566159059,3.77716711865,02,240200576.0,Aisne
02229,Courtrizy-et-Fussigny,COURTRIZY ET FUSSIGNY,municipality,49.5140957547,3.79503800634,02,240200576.0,Aisne
02274,Ébouleau,EBOULEAU,municipality,49.6781110152,3.88259465732,02,240200576.0,Aisne
02299,Évergnicourt,EVERGNICOURT,municipality,49.4564306975,4.03631753944,02,240200576.0,Aisne
02346,Gizy,GIZY,municipality,49.6104960814,3.76786152197,02,240200576.0,Aisne
02350,Goudelancourt-lès-Pierrepont,GOUDELANCOURT LES PIERREPONT,municipality,49.6783296824,3.85162740345,02,240200576.0,Aisne
02360,Villeneuve-sur-Aisne,VILLENEUVE SUR AISNE,municipality,49.4433017606,3.95534582458,02,240200576.0,Aisne
02364,Guyencourt,GUYENCOURT,municipality,49.3573380108,3.84132930883,02,240200576.0,Aisne
02399,Juvincourt-et-Damary,JUVINCOURT ET DAMARY,municipality,49.4468853425,3.89147198339,02,240200576.0,Aisne
02409,Lappion,LAPPION,municipality,49.5898015281,3.96457967258,02,240200576.0,Aisne
02430,Liesse-Notre-Dame,LIESSE NOTRE DAME,municipality,49.6108544067,3.81711786834,02,240200576.0,Aisne
02440,Lor,LOR,municipality,49.5296668744,4.05453884406,02,240200576.0,Aisne
02448,Mâchecourt,MACHECOURT,municipality,49.6516966172,3.83765995783,02,240200576.0,Aisne
02453,Maizy,MAIZY,municipality,49.377259904,3.71616526094,02,240200576.0,Aisne
02454,La Malmaison,MALMAISON,municipality,49.5165178767,4.00048717912,02,240200576.0,Aisne
02457,Marchais,MARCHAIS,municipality,49.5850707567,3.82150148626,02,240200576.0,Aisne
02472,Mauregny-en-Haye,MAUREGNY EN HAYE,municipality,49.5406230877,3.79762834314,02,240200576.0,Aisne
02482,Meurival,MEURIVAL,municipality,49.3567698663,3.7590616765,02,240200576.0,Aisne
02486,Missy-lès-Pierrepont,MISSY LES PIERREPONT,municipality,49.6279354887,3.7841954065,02,240200576.0,Aisne
02498,Montaigu,MONTAIGU,municipality,49.5531328831,3.84439779259,02,240200576.0,Aisne
02534,Muscourt,MUSCOURT,municipality,49.3595795698,3.74350239233,02,240200576.0,Aisne
02541,Neufchâtel-sur-Aisne,NEUFCHATEL SUR AISNE,municipality,49.4367296826,4.0236471269,02,240200576.0,Aisne
02553,Nizy-le-Comte,NIZY LE COMTE,municipality,49.574361853,4.03064818206,02,240200576.0,Aisne
02572,Orainville,ORAINVILLE,municipality,49.3759679828,4.01565856496,02,240200576.0,Aisne
02601,Pignicourt,PIGNICOURT,municipality,49.4091910952,4.0300596148,02,240200576.0,Aisne
02613,Pontavert,PONTAVERT,municipality,49.4176198194,3.82051815377,02,240200576.0,Aisne
02626,Prouvais,PROUVAIS,municipality,49.4760906978,3.97215349857,02,240200576.0,Aisne
02627,Proviseux-et-Plesnoy,PROVISEUX ET PLESNOY,municipality,49.4777224772,4.0158784311,02,240200576.0,Aisne
02656,Roucy,ROUCY,municipality,49.3745878159,3.82024502091,02,240200576.0,Aisne
02676,Saint-Erme-Outre-et-Ramecourt,SAINT ERME OUTRE ET RAMECOURT,municipality,49.5182833727,3.86386406835,02,240200576.0,Aisne
02690,Sainte-Preuve,SAINTE PREUVE,municipality,49.6173037494,3.91098324267,02,240200576.0,Aisne
02705,La Selve,SELVE,municipality,49.5698786702,3.99524867672,02,240200576.0,Aisne
02720,Sissonne,SISSONNE,municipality,49.5639648451,3.92032139579,02,240200576.0,Aisne
02761,Variscourt,VARISCOURT,municipality,49.4148891865,3.98066282251,02,240200576.0,Aisne
02803,La Ville-aux-Bois-lès-Pontavert,VILLE AUX BOIS LES PONTAVERT,municipality,49.4265972983,3.85108262844,02,240200576.0,Aisne
02084,Bézu-le-Guéry,BEZU LE GUERY,municipality,49.0102591835,3.22764610411,02,240200584.0,Aisne
02162,La Chapelle-sur-Chézy,CHAPELLE SUR CHEZY,municipality,48.9492049177,3.37662807022,02,240200584.0,Aisne
02163,Charly-sur-Marne,CHARLY SUR MARNE,municipality,48.9898678258,3.29365157876,02,240200584.0,Aisne
02186,Chézy-sur-Marne,CHEZY SUR MARNE,municipality,48.983996655,3.38226485102,02,240200584.0,Aisne
02221,Coupru,COUPRU,municipality,49.0313536349,3.2743801467,02,240200584.0,Aisne
02242,Crouttes-sur-Marne,CROUTTES SUR MARNE,municipality,48.9791200153,3.24757642131,02,240200584.0,Aisne
02268,Domptin,DOMPTIN,municipality,49.0156995656,3.27296497779,02,240200584.0,Aisne
02281,L'Épine-aux-Bois,EPINE AUX BOIS,municipality,48.8992804015,3.44384138078,02,240200584.0,Aisne
02289,Essises,ESSISES,municipality,48.9666904843,3.41396491705,02,240200584.0,Aisne
02443,Lucy-le-Bocage,LUCY LE BOCAGE,municipality,49.0549612755,3.27616704555,02,240200584.0,Aisne
02465,Marigny-en-Orxois,MARIGNY EN ORXOIS,municipality,49.0526386182,3.22281001734,02,240200584.0,Aisne
02505,Montfaucon,MONTFAUCON,municipality,48.9466694844,3.43192398845,02,240200584.0,Aisne
02521,Montreuil-aux-Lions,MONTREUIL AUX LIONS,municipality,49.0264607134,3.19454438663,02,240200584.0,Aisne
02555,Nogent-l'Artaud,NOGENT L ARTAUD,municipality,48.9426222247,3.332802902,02,240200584.0,Aisne
02596,Pavant,PAVANT,municipality,48.9528924605,3.28390382889,02,240200584.0,Aisne
02653,Romeny-sur-Marne,ROMENY SUR MARNE,municipality,48.9852721229,3.3344209065,02,240200584.0,Aisne
02701,Saulchery,SAULCHERY,municipality,48.9756405479,3.31260850509,02,240200584.0,Aisne
02777,Vendières,VENDIERES,municipality,48.8731710961,3.44301787703,02,240200584.0,Aisne
02792,Veuilly-la-Poterie,VEUILLY LA POTERIE,municipality,49.0832976282,3.2188650234,02,240200584.0,Aisne
02798,Viels-Maisons,VIELS MAISONS,municipality,48.9070425737,3.39571892839,02,240200584.0,Aisne
02818,Villiers-Saint-Denis,VILLIERS SAINT DENIS,municipality,48.9977206046,3.26104064101,02,240200584.0,Aisne
02007,Aizelles,AIZELLES,municipality,49.4848002918,3.81870255331,02,240200592.0,Aisne
02033,Aubigny-en-Laonnois,AUBIGNY EN LAONNOIS,municipality,49.4968821185,3.79282850765,02,240200592.0,Aisne
02058,Beaurieux,BEAURIEUX,municipality,49.402806797,3.75287161991,02,240200592.0,Aisne
02072,Berrieux,BERRIEUX,municipality,49.4823563962,3.8521031839,02,240200592.0,Aisne
02102,Bouconville-Vauclair,BOUCONVILLE VAUCLAIR,municipality,49.4606212957,3.75658607824,02,240200592.0,Aisne
02106,Bourg-et-Comin,BOURG ET COMIN,municipality,49.4022354002,3.65944342757,02,240200592.0,Aisne
02115,Braye-en-Laonnois,BRAYE EN LAONNOIS,municipality,49.4375773374,3.60977976284,02,240200592.0,Aisne
02178,Chermizy-Ailles,CHERMIZY AILLES,municipality,49.4629888139,3.71995479046,02,240200592.0,Aisne
02183,Chevregny,CHEVREGNY,municipality,49.4661009452,3.59365333616,02,240200592.0,Aisne
02215,Corbeny,CORBENY,municipality,49.4620558975,3.82654082441,02,240200592.0,Aisne
02234,Craonne,CRAONNE,municipality,49.4476368348,3.79203280761,02,240200592.0,Aisne
02235,Craonnelle,CRAONNELLE,municipality,49.4254999308,3.77686483236,02,240200592.0,Aisne
02250,Cuiry-lès-Chaudardes,CUIRY LES CHAUDARDES,municipality,49.3897631676,3.76227512623,02,240200592.0,Aisne
02252,Cuissy-et-Geny,CUISSY ET GENY,municipality,49.4034575347,3.70612307803,02,240200592.0,Aisne
02349,Goudelancourt-lès-Berrieux,GOUDELANCOURT LES BERRIEUX,municipality,49.4946764579,3.85858670968,02,240200592.0,Aisne
02396,Jumigny,JUMIGNY,municipality,49.4083834603,3.72524669282,02,240200592.0,Aisne
02530,Moulins,MOULINS,municipality,49.4198471298,3.67884923026,02,240200592.0,Aisne
02531,Moussy-Verneuil,MOUSSY VERNEUIL,municipality,49.4126815323,3.63718132987,02,240200592.0,Aisne
02550,Neuville-sur-Ailette,NEUVILLE SUR AILETTE,municipality,49.4695141414,3.69819946444,02,240200592.0,Aisne
02565,Œuilly,OEUILLY,municipality,49.3928856944,3.68222741301,02,240200592.0,Aisne
02578,Oulches-la-Vallée-Foulon,OULCHES LA VALLEE FOULON,municipality,49.4311311984,3.73966290896,02,240200592.0,Aisne
02582,Paissy,PAISSY,municipality,49.4263466952,3.7014989195,02,240200592.0,Aisne
02583,Pancy-Courtecon,PANCY COURTECON,municipality,49.4606885919,3.64987795196,02,240200592.0,Aisne
02588,Pargnan,PARGNAN,municipality,49.3942391486,3.70308940891,02,240200592.0,Aisne
02609,Ployart-et-Vaurseine,PLOYART ET VAURSEINE,municipality,49.493253698,3.74014252866,02,240200592.0,Aisne
02675,Sainte-Croix,SAINTE CROIX,municipality,49.4800538584,3.78129682642,02,240200592.0,Aisne
02696,Saint-Thomas,SAINT THOMAS,municipality,49.5014100438,3.81925378492,02,240200592.0,Aisne
02751,Trucy,TRUCY,municipality,49.472149818,3.61092318317,02,240200592.0,Aisne
02764,Vassogne,VASSOGNE,municipality,49.4200443432,3.72979191104,02,240200592.0,Aisne
02778,Vendresse-Beaulne,VENDRESSE BEAULNE,municipality,49.4317132906,3.65690243676,02,240200592.0,Aisne
02004,Agnicourt-et-Séchelles,AGNICOURT ET SECHELLES,municipality,49.7166573626,3.96043211816,02,240200469.0,Aisne
02027,Assis-sur-Serre,ASSIS SUR SERRE,municipality,49.6803739117,3.55491692691,02,240200469.0,Aisne
02039,Autremencourt,AUTREMENCOURT,municipality,49.7051244442,3.79419867292,02,240200469.0,Aisne
02046,Barenton-Bugny,BARENTON BUGNY,municipality,49.6218589779,3.66103056579,02,240200469.0,Aisne
02047,Barenton-Cel,BARENTON CEL,municipality,49.6477517259,3.64469997459,02,240200469.0,Aisne
02048,Barenton-sur-Serre,BARENTON SUR SERRE,municipality,49.66833977,3.68940610952,02,240200469.0,Aisne
02096,Bois-lès-Pargny,BOIS LES PARGNY,municipality,49.7369350689,3.65414834535,02,240200469.0,Aisne
02101,Bosmont-sur-Serre,BOSMONT SUR SERRE,municipality,49.7390653213,3.86733568391,02,240200469.0,Aisne
02156,Chalandry,CHALANDRY,municipality,49.6702675165,3.64445509533,02,240200469.0,Aisne
02169,Châtillon-lès-Sons,CHATILLON LES SONS,municipality,49.7618503091,3.70312508858,02,240200469.0,Aisne
02180,Chéry-lès-Pouilly,CHERY LES POUILLY,municipality,49.6488389918,3.59416271271,02,240200469.0,Aisne
02194,Cilly,CILLY,municipality,49.7490011958,3.84000022806,02,240200469.0,Aisne
02231,Couvron-et-Aumencourt,COUVRON ET AUMENCOURT,municipality,49.6458776473,3.52446684584,02,240200469.0,Aisne
02237,Crécy-sur-Serre,CRECY SUR SERRE,municipality,49.698624191,3.62256564798,02,240200469.0,Aisne
02248,Cuirieux,CUIRIEUX,municipality,49.6834404265,3.81994750866,02,240200469.0,Aisne
02261,Dercy,DERCY,municipality,49.709705981,3.68499803784,02,240200469.0,Aisne
02283,Erlon,ERLON,municipality,49.7348278249,3.70534450333,02,240200469.0,Aisne
02338,Froidmont-Cohartille,FROIDMONT COHARTILLE,municipality,49.6818768902,3.72070844849,02,240200469.0,Aisne
02353,Grandlup-et-Fay,GRANDLUP ET FAY,municipality,49.6512687794,3.73646950468,02,240200469.0,Aisne
02460,Marcy-sous-Marle,MARCY SOUS MARLE,municipality,49.7457495163,3.73453881149,02,240200469.0,Aisne
02468,Marle,MARLE,municipality,49.7451393478,3.7652054501,02,240200469.0,Aisne
02480,Mesbrecourt-Richecourt,MESBRECOURT RICHECOURT,municipality,49.710385665,3.53739733076,02,240200469.0,Aisne
02493,Monceau-le-Waast,MONCEAU LE WAAST,municipality,49.6217435488,3.71656668597,02,240200469.0,Aisne
02513,Montigny-le-Franc,MONTIGNY LE FRANC,municipality,49.6874788196,3.9183982393,02,240200469.0,Aisne
02516,Montigny-sous-Marle,MONTIGNY SOUS MARLE,municipality,49.7411090858,3.80397947574,02,240200469.0,Aisne
02517,Montigny-sur-Crécy,MONTIGNY SUR CRECY,municipality,49.7149248587,3.58368023998,02,240200469.0,Aisne
02529,Mortiers,MORTIERS,municipality,49.6934508264,3.66411841593,02,240200469.0,Aisne
02545,La Neuville-Bosmont,NEUVILLE BOSMONT,municipality,49.7145039747,3.83367274994,02,240200469.0,Aisne
02559,Nouvion-et-Catillon,NOUVION ET CATILLON,municipality,49.7075667391,3.49359729343,02,240200469.0,Aisne
02560,Nouvion-le-Comte,NOUVION LE COMTE,municipality,49.7079830783,3.46084868911,02,240200469.0,Aisne
02591,Pargny-les-Bois,PARGNY LES BOIS,municipality,49.7323072713,3.61788330529,02,240200469.0,Aisne
02600,Pierrepont,PIERREPONT,municipality,49.6482784601,3.78777546723,02,240200469.0,Aisne
02617,Pouilly-sur-Serre,POUILLY SUR SERRE,municipality,49.6778615755,3.58559308314,02,240200469.0,Aisne
02638,Remies,REMIES,municipality,49.6793679757,3.52478064261,02,240200469.0,Aisne
02689,Saint-Pierremont,SAINT PIERREMONT,municipality,49.7138800989,3.8761235335,02,240200469.0,Aisne
02727,Sons-et-Ronchères,SONS ET RONCHERES,municipality,49.7689463972,3.66761782458,02,240200469.0,Aisne
02737,Tavaux-et-Pontséricourt,TAVAUX ET PONTSERICOURT,municipality,49.7296446334,3.9190519179,02,240200469.0,Aisne
02742,Thiernu,THIERNU,municipality,49.7649515663,3.77987535834,02,240200469.0,Aisne
02745,Toulis-et-Attencourt,TOULIS ET ATTENCOURT,municipality,49.6970260523,3.75052883427,02,240200469.0,Aisne
02787,Verneuil-sur-Serre,VERNEUIL SUR SERRE,municipality,49.6436030037,3.67943401416,02,240200469.0,Aisne
02790,Vesles-et-Caumont,VESLES ET CAUMONT,municipality,49.6750932677,3.78950879053,02,240200469.0,Aisne
02827,Voyenne,VOYENNE,municipality,49.7158793314,3.73841251024,02,240200469.0,Aisne
02020,Any-Martin-Rieux,ANY MARTIN RIEUX,municipality,49.8823706752,4.22351346907,02,240200600.0,Aisne
02031,Aubenton,AUBENTON,municipality,49.8252306759,4.19066939985,02,240200600.0,Aisne
02055,Beaumé,BEAUME,municipality,49.8211281836,4.15200066545,02,240200600.0,Aisne
02079,Besmont,BESMONT,municipality,49.823361306,4.11768907822,02,240200600.0,Aisne
02130,Bucilly,BUCILLY,municipality,49.8658103548,4.09323369949,02,240200600.0,Aisne
02134,Buire,BUIRE,municipality,49.9070296259,4.05674542304,02,240200600.0,Aisne
02204,Coingt,COINGT,municipality,49.7923246397,4.09591303887,02,240200600.0,Aisne
02275,Effry,EFFRY,municipality,49.9191180654,3.98790173223,02,240200600.0,Aisne
02278,Éparcy,EPARCY,municipality,49.8861370225,4.0702371205,02,240200600.0,Aisne
02378,La Hérie,HERIE,municipality,49.8838269882,4.04360657052,02,240200600.0,Aisne
02381,Hirson,HIRSON,municipality,49.9426458618,4.10483732841,02,240200600.0,Aisne
02388,Iviers,IVIERS,municipality,49.7858863872,4.13552902559,02,240200600.0,Aisne
02391,Jeantes,JEANTES,municipality,49.8127276252,4.06715502895,02,240200600.0,Aisne
02405,Landouzy-la-Ville,LANDOUZY LA VILLE,municipality,49.8562890185,4.05045506584,02,240200600.0,Aisne
02425,Leuze,LEUZE,municipality,49.8578215993,4.16963845435,02,240200600.0,Aisne
02435,Logny-lès-Aubenton,LOGNY LES AUBENTON,municipality,49.8330144048,4.2201280927,02,240200600.0,Aisne
02470,Martigny,MARTIGNY,municipality,49.866582249,4.13443052228,02,240200600.0,Aisne
02495,Mondrepuis,MONDREPUIS,municipality,49.9637441269,4.05128113518,02,240200600.0,Aisne
02522,Mont-Saint-Jean,MONT SAINT JEAN,municipality,49.7932196838,4.21125667983,02,240200600.0,Aisne
02544,Neuve-Maison,NEUVE MAISON,municipality,49.9286429779,4.04086730255,02,240200600.0,Aisne
02567,Ohis,OHIS,municipality,49.9184307239,4.01170912127,02,240200600.0,Aisne
02574,Origny-en-Thiérache,ORIGNY EN THIERACHE,municipality,49.8861904623,4.01101149757,02,240200600.0,Aisne
02674,Saint-Clément,SAINT CLEMENT,municipality,49.7752799579,4.07288901165,02,240200600.0,Aisne
02684,Saint-Michel,SAINT MICHEL,municipality,49.9259700696,4.15288229364,02,240200600.0,Aisne
02831,Watigny,WATIGNY,municipality,49.9163639357,4.20040317785,02,240200600.0,Aisne
02833,Wimy,WIMY,municipality,49.9480535708,3.99735885106,02,240200600.0,Aisne
02003,Acy,ACY,municipality,49.3471963534,3.41817609834,02,240200477.0,Aisne
02043,Bagneux,BAGNEUX,municipality,49.4601139731,3.27945330014,02,240200477.0,Aisne
02064,Belleu,BELLEU,municipality,49.3567574344,3.34051688283,02,240200477.0,Aisne
02077,Berzy-le-Sec,BERZY LE SEC,municipality,49.3172125296,3.29666086699,02,240200477.0,Aisne
02089,Billy-sur-Aisne,BILLY SUR AISNE,municipality,49.3556556532,3.37609947556,02,240200477.0,Aisne
02175,Chavigny,CHAVIGNY,municipality,49.4232730431,3.30567490669,02,240200477.0,Aisne
02226,Courmelles,COURMELLES,municipality,49.3434328339,3.30199112892,02,240200477.0,Aisne
02243,Crouy,CROUY,municipality,49.4078535405,3.36640020468,02,240200477.0,Aisne
02245,Cuffies,CUFFIES,municipality,49.4081126802,3.32236958826,02,240200477.0,Aisne
02253,Cuisy-en-Almont,CUISY EN ALMONT,municipality,49.4207417064,3.24887510168,02,240200477.0,Aisne
02398,Juvigny,JUVIGNY,municipality,49.44857677,3.31533781107,02,240200477.0,Aisne
02424,Leury,LEURY,municipality,49.4269529918,3.34130922178,02,240200477.0,Aisne
02477,Mercin-et-Vaux,MERCIN ET VAUX,municipality,49.3705627456,3.27070140635,02,240200477.0,Aisne
02485,Missy-aux-Bois,MISSY AUX BOIS,municipality,49.3349407256,3.24662970633,02,240200477.0,Aisne
02564,Noyant-et-Aconin,NOYANT ET ACONIN,municipality,49.3319620657,3.33416303776,02,240200477.0,Aisne
02576,Osly-Courtil,OSLY COURTIL,municipality,49.3995301311,3.23736511582,02,240200477.0,Aisne
02593,Pasly,PASLY,municipality,49.4022800131,3.29799527999,02,240200477.0,Aisne
02607,Ploisy,PLOISY,municipality,49.330941238,3.27456677749,02,240200477.0,Aisne
02610,Pommiers,POMMIERS,municipality,49.3921873782,3.27884937169,02,240200477.0,Aisne
02706,Septmonts,SEPTMONTS,municipality,49.3384597812,3.36210276584,02,240200477.0,Aisne
02711,Serches,SERCHES,municipality,49.3320664098,3.44951495068,02,240200477.0,Aisne
02714,Sermoise,SERMOISE,municipality,49.3724753933,3.44697180612,02,240200477.0,Aisne
02722,Soissons,SOISSONS,municipality,49.3791742979,3.32471758491,02,240200477.0,Aisne
02767,Vauxrezis,VAUXREZIS,municipality,49.4205077489,3.27709335238,02,240200477.0,Aisne
02770,Vauxbuin,VAUXBUIN,municipality,49.357283338,3.29549391938,02,240200477.0,Aisne
02780,Venizel,VENIZEL,municipality,49.3676425771,3.39248543249,02,240200477.0,Aisne
02805,Villeneuve-Saint-Germain,VILLENEUVE SAINT GERMAIN,municipality,49.3789013616,3.36175815803,02,240200477.0,Aisne
02828,Vregny,VREGNY,municipality,49.4140619853,3.4197356356,02,240200477.0,Aisne
02029,Attilly,ATTILLY,municipality,49.8554489068,3.15363305662,02,240200493.0,Aisne
02030,Aubencheul-aux-Bois,AUBENCHEUL AUX BOIS,municipality,50.0239903854,3.26103215604,02,240200493.0,Aisne
02057,Beaurevoir,BEAUREVOIR,municipality,49.9965608612,3.32970842537,02,240200493.0,Aisne
02060,Beauvois-en-Vermandois,BEAUVOIS EN VERMANDOIS,municipality,49.8339921767,3.10282045546,02,240200493.0,Aisne
02061,Becquigny,BECQUIGNY,municipality,50.0158703814,3.45898644538,02,240200493.0,Aisne
02063,Bellenglise,BELLENGLISE,municipality,49.9261057081,3.2441994692,02,240200493.0,Aisne
02065,Bellicourt,BELLICOURT,municipality,49.9592991729,3.23020850852,02,240200493.0,Aisne
02095,Bohain-en-Vermandois,BOHAIN EN VERMANDOIS,municipality,49.989032874,3.46522354976,02,240200493.0,Aisne
02100,Bony,BONY,municipality,49.9908643724,3.22116002448,02,240200493.0,Aisne
02112,Brancourt-le-Grand,BRANCOURT LE GRAND,municipality,49.98081057,3.39391192109,02,240200493.0,Aisne
02143,Le Catelet,CATELET,municipality,50.0009779444,3.2423098464,02,240200493.0,Aisne
02144,Caulaincourt,CAULAINCOURT,municipality,49.864658382,3.11126489473,02,240200493.0,Aisne
02240,Croix-Fonsomme,CROIX FONSOMME,municipality,49.9306761102,3.39430326005,02,240200493.0,Aisne
02270,Douchy,DOUCHY,municipality,49.7940905147,3.13035849025,02,240200493.0,Aisne
02291,Estrées,ESTREES,municipality,49.9705842912,3.2801536166,02,240200493.0,Aisne
02293,Étaves-et-Bocquiaux,ETAVES ET BOCQUIAUX,municipality,49.9310354275,3.45081301205,02,240200493.0,Aisne
02296,Étreillers,ETREILLERS,municipality,49.8325776228,3.15800068609,02,240200493.0,Aisne
02317,Fluquières,FLUQUIERES,municipality,49.800435087,3.15658582012,02,240200493.0,Aisne
02323,Fontaine-Uterte,FONTAINE UTERTE,municipality,49.9252841672,3.36796234214,02,240200493.0,Aisne
02327,Foreste,FORESTE,municipality,49.8055794029,3.09615936707,02,240200493.0,Aisne
02330,Francilly-Selency,FRANCILLY SELENCY,municipality,49.8546596853,3.22822036861,02,240200493.0,Aisne
02334,Fresnoy-le-Grand,FRESNOY LE GRAND,municipality,49.9540724704,3.41858032499,02,240200493.0,Aisne
02343,Germaine,GERMAINE,municipality,49.8124843843,3.11903042429,02,240200493.0,Aisne
02352,Gouy,GOUY,municipality,49.9987486908,3.26458305638,02,240200493.0,Aisne
02355,Gricourt,GRICOURT,municipality,49.8869947757,3.23960817466,02,240200493.0,Aisne
02370,Hargicourt,HARGICOURT,municipality,49.9664492878,3.19055510378,02,240200493.0,Aisne
02374,Lehaucourt,LEHAUCOURT,municipality,49.911760676,3.27675235436,02,240200493.0,Aisne
02382,Holnon,HOLNON,municipality,49.8612556888,3.20085325892,02,240200493.0,Aisne
02390,Jeancourt,JEANCOURT,municipality,49.9288562683,3.14778805313,02,240200493.0,Aisne
02392,Joncourt,JONCOURT,municipality,49.9601487798,3.30407272701,02,240200493.0,Aisne
02402,Lanchy,LANCHY,municipality,49.8292105187,3.07415428089,02,240200493.0,Aisne
02417,Lempire,LEMPIRE,municipality,49.9953429453,3.17401503527,02,240200493.0,Aisne
02426,Levergies,LEVERGIES,municipality,49.9345380686,3.31185579217,02,240200493.0,Aisne
02451,Magny-la-Fosse,MAGNY LA FOSSE,municipality,49.9371259007,3.27654031882,02,240200493.0,Aisne
02452,Maissemy,MAISSEMY,municipality,49.8929443672,3.1890371838,02,240200493.0,Aisne
02500,Montbrehain,MONTBREHAIN,municipality,49.9642449609,3.35609147368,02,240200493.0,Aisne
02511,Montigny-en-Arrouaise,MONTIGNY EN ARROUAISE,municipality,49.9120067618,3.48306674241,02,240200493.0,Aisne
02539,Nauroy,NAUROY,municipality,49.9508154668,3.25861980976,02,240200493.0,Aisne
02614,Pontru,PONTRU,municipality,49.921599489,3.20120191987,02,240200493.0,Aisne
02615,Pontruet,PONTRUET,municipality,49.9148506173,3.2294738031,02,240200493.0,Aisne
02618,Prémont,PREMONT,municipality,50.0143067533,3.39725258008,02,240200493.0,Aisne
02635,Ramicourt,RAMICOURT,municipality,49.9579684711,3.33105686967,02,240200493.0,Aisne
02658,Roupy,ROUPY,municipality,49.8120572031,3.18195896491,02,240200493.0,Aisne
02702,Savy,SAVY,municipality,49.8343646886,3.19764190963,02,240200493.0,Aisne
02703,Seboncourt,SEBONCOURT,municipality,49.9626066437,3.49425998163,02,240200493.0,Aisne
02708,Sequehart,SEQUEHART,municipality,49.9320260511,3.34096519199,02,240200493.0,Aisne
02709,Serain,SERAIN,municipality,50.0246912807,3.36304349229,02,240200493.0,Aisne
02747,Trefcon,TREFCON,municipality,49.859082365,3.08864647254,02,240200493.0,Aisne
02772,Vaux-en-Vermandois,VAUX EN VERMANDOIS,municipality,49.8238668444,3.13578987374,02,240200493.0,Aisne
02774,Vendelles,VENDELLES,municipality,49.9078313873,3.1381693574,02,240200493.0,Aisne
02776,Vendhuile,VENDHUILE,municipality,50.0120254621,3.20888614063,02,240200493.0,Aisne
02782,Le Verguier,VERGUIER,municipality,49.9231401902,3.16936385423,02,240200493.0,Aisne
02785,Vermand,VERMAND,municipality,49.8839098456,3.15146515668,02,240200493.0,Aisne
02808,Villeret,VILLERET,municipality,49.9494418046,3.18749892652,02,240200493.0,Aisne
02006,Aisonville-et-Bernoville,AISONVILLE ET BERNOVILLE,municipality,49.930148162,3.51120205593,02,200071983.0,Aisne
02035,Audigny,AUDIGNY,municipality,49.8660645425,3.6312599901,02,200071983.0,Aisne
02070,Bernot,BERNOT,municipality,49.8793651304,3.48665456392,02,200071983.0,Aisne
02188,Chigny,CHIGNY,municipality,49.9298846139,3.77489645427,02,200071983.0,Aisne
02244,Crupilly,CRUPILLY,municipality,49.9313828796,3.75249198254,02,200071983.0,Aisne
02298,Étreux,ETREUX,municipality,49.9996010721,3.65890491685,02,200071983.0,Aisne
02313,Flavigny-le-Grand-et-Beaurain,FLAVIGNY LE GRAND ET BEAURAIN,municipality,49.8865505663,3.67406409367,02,200071983.0,Aisne
02358,Grougis,GROUGIS,municipality,49.9508110437,3.53098081744,02,200071983.0,Aisne
02361,Guise,GUISE,municipality,49.8960415076,3.62476062929,02,200071983.0,Aisne
02366,Hannapes,HANNAPES,municipality,49.9771158104,3.61442642232,02,200071983.0,Aisne
02376,Hauteville,HAUTEVILLE,municipality,49.8884981223,3.52369340599,02,200071983.0,Aisne
02386,Iron,IRON,municipality,49.9504309458,3.6652978953,02,200071983.0,Aisne
02414,Lavaqueresse,LAVAQUERESSE,municipality,49.9465387553,3.7166420191,02,200071983.0,Aisne
02422,Lesquielles-Saint-Germain,LESQUIELLES SAINT GERMAIN,municipality,49.931687068,3.62808644318,02,200071983.0,Aisne
02450,Macquigny,MACQUIGNY,municipality,49.8732387452,3.57070489565,02,200071983.0,Aisne
02455,Malzy,MALZY,municipality,49.921297034,3.73000059946,02,200071983.0,Aisne
02469,Marly-Gomont,MARLY GOMONT,municipality,49.8913737841,3.7849871912,02,200071983.0,Aisne
02476,Mennevret,MENNEVRET,municipality,49.9919704555,3.55884133428,02,200071983.0,Aisne
02488,Molain,MOLAIN,municipality,50.03359227,3.52985658168,02,200071983.0,Aisne
02494,Monceau-sur-Oise,MONCEAU SUR OISE,municipality,49.9097732744,3.69947432588,02,200071983.0,Aisne
02563,Noyales,NOYALES,municipality,49.9082559491,3.53848565514,02,200071983.0,Aisne
02569,Oisy,OISY,municipality,50.0229089259,3.65273893683,02,200071983.0,Aisne
02624,Proisy,PROISY,municipality,49.8906172484,3.75241120947,02,200071983.0,Aisne
02625,Proix,PROIX,municipality,49.9022161869,3.57346862626,02,200071983.0,Aisne
02647,Ribeauville,RIBEAUVILLE,municipality,50.0366991182,3.58754496166,02,200071983.0,Aisne
02654,Romery,ROMERY,municipality,49.8882844958,3.73266627848,02,200071983.0,Aisne
02683,Saint-Martin-Rivière,SAINT MARTIN RIVIERE,municipality,50.044008328,3.55486334419,02,200071983.0,Aisne
02753,Tupigny,TUPIGNY,municipality,49.9705608416,3.59399622464,02,200071983.0,Aisne
02757,Vadencourt,VADENCOURT,municipality,49.9229771613,3.57386118846,02,200071983.0,Aisne
02760,La Vallée-Mulâtre,VALLEE MULATRE,municipality,50.0255708699,3.56063329937,02,200071983.0,Aisne
02769,Vaux-Andigny,VAUX ANDIGNY,municipality,50.0111472485,3.52295400201,02,200071983.0,Aisne
02779,Vénérolles,VENEROLLES,municipality,49.9903433031,3.63008652624,02,200071983.0,Aisne
02783,Grand-Verly,GRAND VERLY,municipality,49.9434199886,3.58138282505,02,200071983.0,Aisne
02784,Petit-Verly,PETIT VERLY,municipality,49.9581493631,3.56275189688,02,200071983.0,Aisne
02814,Villers-lès-Guise,VILLERS LES GUISE,municipality,49.9255661982,3.68241664598,02,200071983.0,Aisne
02830,Wassigny,WASSIGNY,municipality,50.017642986,3.59944731539,02,200071983.0,Aisne
02008,Aizy-Jouy,AIZY JOUY,municipality,49.4384256824,3.51149185429,02,240200501.0,Aisne
02010,Allemant,ALLEMANT,municipality,49.4624440593,3.45394275872,02,240200501.0,Aisne
02036,Augy,AUGY,municipality,49.340063724,3.5110198819,02,240200501.0,Aisne
02054,Bazoches-et-Saint-Thibaut,BAZOCHES ET SAINT THIBAUT,municipality,49.3070586788,3.61583126589,02,240200501.0,Aisne
02091,Blanzy-lès-Fismes,BLANZY LES FISMES,municipality,49.3372673738,3.671868408,02,240200501.0,Aisne
02110,Braine,BRAINE,municipality,49.3484719318,3.53596629744,02,240200501.0,Aisne
02118,Braye,BRAYE,municipality,49.4221361409,3.37829006511,02,240200501.0,Aisne
02120,Brenelle,BRENELLE,municipality,49.3680052078,3.5442035574,02,240200501.0,Aisne
02129,Bruys,BRUYS,municipality,49.2621681637,3.56863439754,02,240200501.0,Aisne
02131,Bucy-le-Long,BUCY LE LONG,municipality,49.3884447185,3.39828602712,02,240200501.0,Aisne
02148,Celles-sur-Aisne,CELLES SUR AISNE,municipality,49.4159264546,3.47446927431,02,240200501.0,Aisne
02152,Cerseuil,CERSEUIL,municipality,49.324784775,3.51746919082,02,240200501.0,Aisne
02167,Chassemy,CHASSEMY,municipality,49.3783410842,3.50271467967,02,240200501.0,Aisne
02174,Chavignon,CHAVIGNON,municipality,49.4794437147,3.51936895626,02,240200501.0,Aisne
02176,Chavonne,CHAVONNE,municipality,49.4073162185,3.56243209622,02,240200501.0,Aisne
02179,Chéry-Chartreuve,CHERY CHARTREUVE,municipality,49.2556867214,3.60484629397,02,240200501.0,Aisne
02190,Chivres-Val,CHIVRES VAL,municipality,49.4029298198,3.43836038727,02,240200501.0,Aisne
02195,Ciry-Salsogne,CIRY SALSOGNE,municipality,49.3674868367,3.46778299062,02,240200501.0,Aisne
02198,Clamecy,CLAMECY,municipality,49.4281077825,3.36378754787,02,240200501.0,Aisne
02210,Condé-sur-Aisne,CONDE SUR AISNE,municipality,49.4007552828,3.46571591087,02,240200501.0,Aisne
02224,Courcelles-sur-Vesle,COURCELLES SUR VESLE,municipality,49.348025885,3.57684035869,02,240200501.0,Aisne
02230,Couvrelles,COUVRELLES,municipality,49.3339841009,3.48486954064,02,240200501.0,Aisne
02255,Cys-la-Commune,CYS LA COMMUNE,municipality,49.3837163848,3.57235420125,02,240200501.0,Aisne
02263,Dhuizel,DHUIZEL,municipality,49.3602201297,3.61487590771,02,240200501.0,Aisne
02311,Filain,FILAIN,municipality,49.4528807514,3.5574063541,02,240200501.0,Aisne
02393,Jouaignes,JOUAIGNES,municipality,49.2928418789,3.52818628425,02,240200501.0,Aisne
02400,Laffaux,LAFFAUX,municipality,49.4494770874,3.42995693216,02,240200501.0,Aisne
02421,Lesges,LESGES,municipality,49.309828392,3.50034767893,02,240200501.0,Aisne
02427,Lhuys,LHUYS,municipality,49.2728528048,3.54230635286,02,240200501.0,Aisne
02432,Limé,LIME,municipality,49.3234940469,3.55539520178,02,240200501.0,Aisne
02439,Les Septvallons,SEPTVALLONS,municipality,49.3603355862,3.65567844397,02,240200501.0,Aisne
02464,Margival,MARGIVAL,municipality,49.432719029,3.40572977303,02,240200501.0,Aisne
02487,Missy-sur-Aisne,MISSY SUR AISNE,municipality,49.3855898418,3.43829672684,02,240200501.0,Aisne
02490,Monampteuil,MONAMPTEUIL,municipality,49.4760084468,3.57360176783,02,240200501.0,Aisne
02520,Mont-Notre-Dame,MONT NOTRE DAME,municipality,49.2921467742,3.5821661713,02,240200501.0,Aisne
02523,Mont-Saint-Martin,MONT SAINT MARTIN,municipality,49.2747967442,3.64275042996,02,240200501.0,Aisne
02537,Nanteuil-la-Fosse,NANTEUIL LA FOSSE,municipality,49.4338010814,3.44800041437,02,240200501.0,Aisne
02551,Neuville-sur-Margival,NEUVILLE SUR MARGIVAL,municipality,49.4548729773,3.3986658815,02,240200501.0,Aisne
02577,Ostel,OSTEL,municipality,49.4299692983,3.56538871192,02,240200501.0,Aisne
02581,Paars,PAARS,municipality,49.3302779346,3.60267922049,02,240200501.0,Aisne
02589,Pargny-Filain,PARGNY FILAIN,municipality,49.4629055692,3.53929108659,02,240200501.0,Aisne
02612,Pont-Arcy,PONT ARCY,municipality,49.391846031,3.62003836186,02,240200501.0,Aisne
02620,Presles-et-Boves,PRESLES ET BOVES,municipality,49.3900726835,3.54013980029,02,240200501.0,Aisne
02633,Quincy-sous-le-Mont,QUINCY SOUS LE MONT,municipality,49.3082323924,3.55906421912,02,240200501.0,Aisne
02682,Saint-Mard,SAINT MARD,municipality,49.3813338634,3.58902035004,02,240200501.0,Aisne
02698,Sancy-les-Cheminots,SANCY LES CHEMINOTS,municipality,49.4393806827,3.47649552313,02,240200501.0,Aisne
02715,Serval,SERVAL,municipality,49.352069984,3.68270184221,02,240200501.0,Aisne
02730,Soupir,SOUPIR,municipality,49.4106784751,3.59989736789,02,240200501.0,Aisne
02735,Tannières,TANNIERES,municipality,49.2873370949,3.55040892873,02,240200501.0,Aisne
02739,Terny-Sorny,TERNY SORNY,municipality,49.4472096599,3.36942791187,02,240200501.0,Aisne
02758,Vailly-sur-Aisne,VAILLY SUR AISNE,municipality,49.4108623288,3.52012059802,02,240200501.0,Aisne
02763,Vasseny,VASSENY,municipality,49.3556275252,3.48910249175,02,240200501.0,Aisne
02766,Vaudesson,VAUDESSON,municipality,49.4750001736,3.48695975523,02,240200501.0,Aisne
02773,Vauxtin,VAUXTIN,municipality,49.3454673056,3.60165884249,02,240200501.0,Aisne
02797,Viel-Arcy,VIEL ARCY,municipality,49.3789345254,3.62589443596,02,240200501.0,Aisne
02817,Ville-Savoye,VILLE SAVOYE,municipality,49.2929807511,3.63762361829,02,240200501.0,Aisne
02829,Vuillery,VUILLERY,municipality,49.4306831911,3.38794524263,02,240200501.0,Aisne
02011,Ambleny,AMBLENY,municipality,49.3762672939,3.18334679178,02,200071991.0,Aisne
02015,Ancienville,ANCIENVILLE,municipality,49.2186389559,3.20808809779,02,200071991.0,Aisne
02034,Audignicourt,AUDIGNICOURT,municipality,49.4777157214,3.12718502825,02,200071991.0,Aisne
02071,Berny-Rivière,BERNY RIVIERE,municipality,49.4113288887,3.14975272702,02,200071991.0,Aisne
02087,Bieuxy,BIEUXY,municipality,49.4476050585,3.26985890807,02,200071991.0,Aisne
02192,Chouy,CHOUY,municipality,49.2167334121,3.24708004454,02,200071991.0,Aisne
02201,Cœuvres-et-Valsery,COEUVRES ET VALSERY,municipality,49.3295432232,3.15290453511,02,200071991.0,Aisne
02216,Corcy,CORCY,municipality,49.2549892095,3.19724367023,02,200071991.0,Aisne
02232,Coyolles,COYOLLES,municipality,49.2133089693,3.01306173751,02,200071991.0,Aisne
02254,Cutry,CUTRY,municipality,49.3442753875,3.19127169549,02,200071991.0,Aisne
02258,Dammard,DAMMARD,municipality,49.1470522556,3.17719709632,02,200071991.0,Aisne
02259,Dampleux,DAMPLEUX,municipality,49.2414407733,3.14413128827,02,200071991.0,Aisne
02267,Dommiers,DOMMIERS,municipality,49.3290731499,3.21634686939,02,200071991.0,Aisne
02277,Épagny,EPAGNY,municipality,49.471791053,3.25384432012,02,200071991.0,Aisne
02302,Faverolles,FAVEROLLES,municipality,49.227064775,3.17814481548,02,200071991.0,Aisne
02307,La Ferté-Milon,FERTE MILON,municipality,49.1759874423,3.14237641756,02,200071991.0,Aisne
02316,Fleury,FLEURY,municipality,49.2652863131,3.15947064674,02,200071991.0,Aisne
02326,Fontenoy,FONTENOY,municipality,49.4099999437,3.19454758662,02,200071991.0,Aisne
02368,Haramont,HARAMONT,municipality,49.2872759039,3.03148977109,02,200071991.0,Aisne
02410,Largny-sur-Automne,LARGNY SUR AUTOMNE,municipality,49.2610748419,3.05411123113,02,200071991.0,Aisne
02415,Laversine,LAVERSINE,municipality,49.3528718857,3.15459651522,02,200071991.0,Aisne
02438,Longpont,LONGPONT,municipality,49.2843362442,3.22069360555,02,200071991.0,Aisne
02441,Louâtre,LOUATRE,municipality,49.2527947078,3.24153629897,02,200071991.0,Aisne
02449,Macogny,MACOGNY,municipality,49.1590429097,3.21784708642,02,200071991.0,Aisne
02466,Marizy-Sainte-Geneviève,MARIZY SAINTE GENEVIEVE,municipality,49.1825477943,3.19814247608,02,200071991.0,Aisne
02467,Marizy-Saint-Mard,MARIZY SAINT MARD,municipality,49.1822693098,3.22799114728,02,200071991.0,Aisne
02496,Monnes,MONNES,municipality,49.1458358775,3.22861820737,02,200071991.0,Aisne
02506,Montgobert,MONTGOBERT,municipality,49.289626635,3.17404129063,02,200071991.0,Aisne
02514,Montigny-Lengrain,MONTIGNY LENGRAIN,municipality,49.3726900463,3.09924630011,02,200071991.0,Aisne
02527,Morsain,MORSAIN,municipality,49.4616807631,3.19122405616,02,200071991.0,Aisne
02528,Mortefontaine,MORTEFONTAINE,municipality,49.3362768244,3.08053479514,02,200071991.0,Aisne
02557,Noroy-sur-Ourcq,NOROY SUR OURCQ,municipality,49.2041824443,3.20698565652,02,200071991.0,Aisne
02562,Nouvron-Vingré,NOUVRON VINGRE,municipality,49.4333492,3.18803179842,02,200071991.0,Aisne
02568,Oigny-en-Valois,OIGNY EN VALOIS,municipality,49.2137237953,3.1302728623,02,200071991.0,Aisne
02594,Passy-en-Valois,PASSY EN VALOIS,municipality,49.1621618332,3.18418881622,02,200071991.0,Aisne
02598,Pernant,PERNANT,municipality,49.3756522114,3.23031459047,02,200071991.0,Aisne
02628,Puiseux-en-Retz,PUISEUX EN RETZ,municipality,49.2925861417,3.13448879571,02,200071991.0,Aisne
02643,Ressons-le-Long,RESSONS LE LONG,municipality,49.3881779495,3.1411755288,02,200071991.0,Aisne
02644,Retheuil,RETHEUIL,municipality,49.318909114,3.00378064988,02,200071991.0,Aisne
02667,Saconin-et-Breuil,SACONIN ET BREUIL,municipality,49.3506902358,3.24672146323,02,200071991.0,Aisne
02672,Saint-Bandry,SAINT BANDRY,municipality,49.3638994868,3.14949009826,02,200071991.0,Aisne
02673,Saint-Christophe-à-Berry,SAINT CHRISTOPHE A BERRY,municipality,49.4290499245,3.12949472733,02,200071991.0,Aisne
02687,Saint-Pierre-Aigle,SAINT PIERRE AIGLE,municipality,49.3121621719,3.19602649155,02,200071991.0,Aisne
02718,Silly-la-Poterie,SILLY LA POTERIE,municipality,49.1959898805,3.15010276155,02,200071991.0,Aisne
02729,Soucy,SOUCY,municipality,49.3209750175,3.12324909086,02,200071991.0,Aisne
02734,Taillefontaine,TAILLEFONTAINE,municipality,49.3099328056,3.04962539056,02,200071991.0,Aisne
02736,Tartiers,TARTIERS,municipality,49.4400811642,3.23156556276,02,200071991.0,Aisne
02749,Troësnes,TROESNES,municipality,49.1981484588,3.1768274022,02,200071991.0,Aisne
02762,Vassens,VASSENS,municipality,49.4754669876,3.15640761403,02,200071991.0,Aisne
02793,Vézaponin,VEZAPONIN,municipality,49.4667498193,3.22298094528,02,200071991.0,Aisne
02795,Vic-sur-Aisne,VIC SUR AISNE,municipality,49.410747629,3.10912550549,02,200071991.0,Aisne
02810,Villers-Cotterêts,VILLERS COTTERETS,municipality,49.2392000574,3.09612191097,02,200071991.0,Aisne
02812,Villers-Hélon,VILLERS HELON,municipality,49.2649355463,3.26786134731,02,200071991.0,Aisne
02822,Vivières,VIVIERES,municipality,49.3051885401,3.09196075945,02,200071991.0,Aisne
02021,Archon,ARCHON,municipality,49.744126618,4.11908765808,02,240200634.0,Aisne
02038,Les Autels,AUTELS,municipality,49.7608855336,4.22422505762,02,240200634.0,Aisne
02069,Berlise,BERLISE,municipality,49.6622290606,4.11314086897,02,240200634.0,Aisne
02126,Brunehamel,BRUNEHAMEL,municipality,49.7718100626,4.18649398572,02,240200634.0,Aisne
02160,Chaourse,CHAOURSE,municipality,49.7007898116,3.98562292281,02,240200634.0,Aisne
02181,Chéry-lès-Rozoy,CHERY LES ROZOY,municipality,49.7222192886,4.1011989282,02,240200634.0,Aisne
02200,Clermont-les-Fermes,CLERMONT LES FERMES,municipality,49.6601654327,3.94320327145,02,240200634.0,Aisne
02251,Cuiry-lès-Iviers,CUIRY LES IVIERS,municipality,49.7661751176,4.10397751712,02,240200634.0,Aisne
02256,Dagny-Lambercy,DAGNY LAMBERCY,municipality,49.7690562311,4.04218248631,02,240200634.0,Aisne
02264,Dizy-le-Gros,DIZY LE GROS,municipality,49.6355575735,4.01312880234,02,240200634.0,Aisne
02265,Dohis,DOHIS,municipality,49.7667554096,4.14178746545,02,240200634.0,Aisne
02266,Dolignon,DOLIGNON,municipality,49.7338298517,4.08637882793,02,240200634.0,Aisne
02354,Grandrieux,GRANDRIEUX,municipality,49.7291718471,4.1879249496,02,240200634.0,Aisne
02433,Lislet,LISLET,municipality,49.6757265054,4.02084295692,02,240200634.0,Aisne
02502,Montcornet,MONTCORNET,municipality,49.6890129328,4.02915061151,02,240200634.0,Aisne
02519,Montloué,MONTLOUE,municipality,49.6682396007,4.06275825607,02,240200634.0,Aisne
02526,Morgny-en-Thiérache,MORGNY EN THIERACHE,municipality,49.7544947391,4.07631392389,02,240200634.0,Aisne
02556,Noircourt,NOIRCOURT,municipality,49.6691648747,4.09433809595,02,240200634.0,Aisne
02586,Parfondeval,PARFONDEVAL,municipality,49.7443573688,4.16145285338,02,240200634.0,Aisne
02634,Raillimont,RAILLIMONT,municipality,49.701759318,4.15934737957,02,240200634.0,Aisne
02641,Renneval,RENNEVAL,municipality,49.7391714019,4.03674170066,02,240200634.0,Aisne
02642,Résigny,RESIGNY,municipality,49.7413860683,4.21000271409,02,240200634.0,Aisne
02660,Rouvroy-sur-Serre,ROUVROY SUR SERRE,municipality,49.7153670931,4.17597798145,02,240200634.0,Aisne
02666,Rozoy-sur-Serre,ROZOY SUR SERRE,municipality,49.706447861,4.13134010865,02,240200634.0,Aisne
02678,Sainte-Geneviève,SAINTE GENEVIEVE,municipality,49.7247039611,4.07368196391,02,240200634.0,Aisne
02723,Soize,SOIZE,municipality,49.6977848851,4.08583269025,02,240200634.0,Aisne
02743,Le Thuel,THUEL,municipality,49.6413105954,4.08903091475,02,240200634.0,Aisne
02801,Vigneux-Hocquet,VIGNEUX HOCQUET,municipality,49.7440393657,3.99489165596,02,240200634.0,Aisne
02802,La Ville-aux-Bois-lès-Dizy,VILLE AUX BOIS LES DIZY,municipality,49.6626572968,3.98152083729,02,240200634.0,Aisne
02819,Vincy-Reuil-et-Magny,VINCY REUIL ET MAGNY,municipality,49.7140295341,4.04512127967,02,240200634.0,Aisne
02012,Ambrief,AMBRIEF,municipality,49.3215250088,3.40362196255,02,240200519.0,Aisne
02022,Arcy-Sainte-Restitue,ARCY SAINTE RESTITUE,municipality,49.2548799371,3.47829076337,02,240200519.0,Aisne
02082,Beugneux,BEUGNEUX,municipality,49.2275759309,3.41647403702,02,240200519.0,Aisne
02090,Billy-sur-Ourcq,BILLY SUR OURCQ,municipality,49.2215032882,3.29903267663,02,240200519.0,Aisne
02121,Breny,BRENY,municipality,49.1842783438,3.34972495405,02,240200519.0,Aisne
02138,Buzancy,BUZANCY,municipality,49.3099528163,3.3478744079,02,240200519.0,Aisne
02154,Chacrise,CHACRISE,municipality,49.3002009035,3.39759102537,02,240200519.0,Aisne
02172,Chaudun,CHAUDUN,municipality,49.3150223009,3.25276338247,02,240200519.0,Aisne
02233,Cramaille,CRAMAILLE,municipality,49.2285541737,3.45227303073,02,240200519.0,Aisne
02249,Cuiry-Housse,CUIRY HOUSSE,municipality,49.2904033438,3.48843248507,02,240200519.0,Aisne
02272,Droizy,DROIZY,municipality,49.2773564352,3.38965007811,02,240200519.0,Aisne
02372,Hartennes-et-Taux,HARTENNES ET TAUX,municipality,49.2789534457,3.35763287633,02,240200519.0,Aisne
02412,Launoy,LAUNOY,municipality,49.2629984132,3.4054374314,02,240200519.0,Aisne
02447,Maast-et-Violaine,MAAST ET VIOLAINE,municipality,49.2931740531,3.45694908531,02,240200519.0,Aisne
02507,Montgru-Saint-Hilaire,MONTGRU SAINT HILAIRE,municipality,49.1768851038,3.32722209943,02,240200519.0,Aisne
02533,Muret-et-Crouttes,MURET ET CROUTTES,municipality,49.2781417953,3.43464742094,02,240200519.0,Aisne
02536,Nampteuil-sous-Muret,NAMPTEUIL SOUS MURET,municipality,49.3051403969,3.43398003516,02,240200519.0,Aisne
02579,Oulchy-la-Ville,OULCHY LA VILLE,municipality,49.2098503819,3.34062520679,02,240200519.0,Aisne
02580,Oulchy-le-Château,OULCHY LE CHATEAU,municipality,49.2070701806,3.38202413773,02,240200519.0,Aisne
02585,Parcy-et-Tigny,PARCY ET TIGNY,municipality,49.2703704352,3.32906709704,02,240200519.0,Aisne
02606,Le Plessier-Huleu,PLESSIER HULEU,municipality,49.2388752756,3.34814266149,02,240200519.0,Aisne
02663,Rozières-sur-Crise,ROZIERES SUR CRISE,municipality,49.3227443516,3.37101592804,02,240200519.0,Aisne
02665,Grand-Rozoy,GRAND ROZOY,municipality,49.2423109815,3.38147360131,02,240200519.0,Aisne
02693,Saint-Rémy-Blanzy,SAINT REMY BLANZY,municipality,49.2457583592,3.30773725902,02,240200519.0,Aisne
02799,Vierzy,VIERZY,municipality,49.2868570454,3.27759490696,02,240200519.0,Aisne
02804,Villemontoire,VILLEMONTOIRE,municipality,49.3000199564,3.32189672243,02,240200519.0,Aisne
02604,Pithon,PITHON,municipality,49.7562365167,3.10422093946,02,200070985.0,Aisne
02019,Annois,ANNOIS,municipality,49.7210674108,3.17611501401,02,200071892.0,Aisne
02025,Artemps,ARTEMPS,municipality,49.7617999337,3.19725095546,02,200071892.0,Aisne
02032,Aubigny-aux-Kaisnes,AUBIGNY AUX KAISNES,municipality,49.7721524634,3.1192565988,02,200071892.0,Aisne
02117,Bray-Saint-Christophe,BRAY SAINT CHRISTOPHE,municipality,49.7746700975,3.14070965091,02,200071892.0,Aisne
02142,Castres,CASTRES,municipality,49.8013894137,3.25325245088,02,200071892.0,Aisne
02199,Clastres,CLASTRES,municipality,49.7488769741,3.2302033407,02,200071892.0,Aisne
02214,Contescourt,CONTESCOURT,municipality,49.7916934603,3.23428350737,02,200071892.0,Aisne
02246,Cugny,CUGNY,municipality,49.7031009123,3.15424498862,02,200071892.0,Aisne
02257,Dallon,DALLON,municipality,49.8240617542,3.23031219742,02,200071892.0,Aisne
02273,Dury,DURY,municipality,49.751235296,3.13377121735,02,200071892.0,Aisne
02288,Essigny-le-Petit,ESSIGNY LE PETIT,municipality,49.8961825414,3.36742260207,02,200071892.0,Aisne
02303,Fayet,FAYET,municipality,49.8710844824,3.25278845948,02,200071892.0,Aisne
02310,Fieulaine,FIEULAINE,municipality,49.9018502295,3.44594045878,02,200071892.0,Aisne
02315,Flavy-le-Martel,FLAVY LE MARTEL,municipality,49.7047240534,3.19451403575,02,200071892.0,Aisne
02319,Fonsomme,FONSOMME,municipality,49.9012467271,3.39650664791,02,200071892.0,Aisne
02320,Fontaine-lès-Clercs,FONTAINE LES CLERCS,municipality,49.8078439274,3.21253412905,02,200071892.0,Aisne
02322,Fontaine-Notre-Dame,FONTAINE NOTRE DAME,municipality,49.8785724713,3.42380596752,02,200071892.0,Aisne
02340,Gauchy,GAUCHY,municipality,49.8234688599,3.28649189661,02,200071892.0,Aisne
02359,Grugies,GRUGIES,municipality,49.8100941328,3.2751623814,02,200071892.0,Aisne
02367,Happencourt,HAPPENCOURT,municipality,49.7825905619,3.1831286327,02,200071892.0,Aisne
02371,Harly,HARLY,municipality,49.8407051764,3.33484724239,02,200071892.0,Aisne
02383,Homblières,HOMBLIERES,municipality,49.8577543083,3.37495127984,02,200071892.0,Aisne
02397,Jussy,JUSSY,municipality,49.7172050931,3.23611732777,02,200071892.0,Aisne
02420,Lesdins,LESDINS,municipality,49.9043632178,3.31462117869,02,200071892.0,Aisne
02459,Marcy,MARCY,municipality,49.8535898318,3.41135532201,02,200071892.0,Aisne
02481,Mesnil-Saint-Laurent,MESNIL SAINT LAURENT,municipality,49.8290188644,3.36454012617,02,200071892.0,Aisne
02504,Montescourt-Lizerolles,MONTESCOURT LIZEROLLES,municipality,49.7360396205,3.26188923395,02,200071892.0,Aisne
02525,Morcourt,MORCOURT,municipality,49.8759595448,3.33400206098,02,200071892.0,Aisne
02549,Neuville-Saint-Amand,NEUVILLE SAINT AMAND,municipality,49.8206477091,3.33360991741,02,200071892.0,Aisne
02570,Ollezy,OLLEZY,municipality,49.729996536,3.14607261695,02,200071892.0,Aisne
02571,Omissy,OMISSY,municipality,49.8804267246,3.29788036707,02,200071892.0,Aisne
02637,Remaucourt,REMAUCOURT,municipality,49.8954350618,3.34948034131,02,200071892.0,Aisne
02659,Rouvroy,ROUVROY,municipality,49.8579447094,3.33298681219,02,200071892.0,Aisne
02691,Saint-Quentin,SAINT QUENTIN,municipality,49.8472336321,3.27769499462,02,200071892.0,Aisne
02694,Saint-Simon,SAINT SIMON,municipality,49.7458877556,3.18260412516,02,200071892.0,Aisne
02710,Seraucourt-le-Grand,SERAUCOURT LE GRAND,municipality,49.780519235,3.21829749297,02,200071892.0,Aisne
02726,Sommette-Eaucourt,SOMMETTE EAUCOURT,municipality,49.727418066,3.11947808471,02,200071892.0,Aisne
02752,Tugny-et-Pont,TUGNY ET PONT,municipality,49.7704032986,3.16072597634,02,200071892.0,Aisne
02815,Villers-Saint-Christophe,VILLERS SAINT CHRISTOPHE,municipality,49.7796914155,3.09099897496,02,200071892.0,Aisne
02018,Anizy-le-Grand,ANIZY LE GRAND,municipality,49.5045058305,3.43129584952,02,200071769.0,Aisne
02049,Barisis-aux-Bois,BARISIS AUX BOIS,municipality,49.577979369,3.32804487461,02,200071769.0,Aisne
02052,Bassoles-Aulers,BASSOLES AULERS,municipality,49.5332813699,3.38492604839,02,200071769.0,Aisne
02078,Besmé,BESME,municipality,49.5341682819,3.16474171361,02,200071769.0,Aisne
02093,Blérancourt,BLERANCOURT,municipality,49.5076223945,3.15179502187,02,200071769.0,Aisne
02107,Bourguignon-sous-Coucy,BOURGUIGNON SOUS COUCY,municipality,49.5427641575,3.15422957657,02,200071769.0,Aisne
02108,Bourguignon-sous-Montbavin,BOURGUIGNON SOUS MONTBAVIN,municipality,49.5288056883,3.53777236106,02,200071769.0,Aisne
02111,Brancourt-en-Laonnois,BRANCOURT EN LAONNOIS,municipality,49.5176286609,3.41282321335,02,200071769.0,Aisne
02140,Camelin,CAMELIN,municipality,49.5205248253,3.12854853594,02,200071769.0,Aisne
02155,Chaillevois,CHAILLEVOIS,municipality,49.5081654549,3.52234605948,02,200071769.0,Aisne
02159,Champs,CHAMPS,municipality,49.5434967943,3.2618311238,02,200071769.0,Aisne
02217,Coucy-le-Château-Auffrique,COUCY LE CHATEAU AUFFRIQUE,municipality,49.5159709578,3.31548892957,02,200071769.0,Aisne
02219,Coucy-la-Ville,COUCY LA VILLE,municipality,49.5405792355,3.34372156034,02,200071769.0,Aisne
02236,Crécy-au-Mont,CRECY AU MONT,municipality,49.4839031807,3.31195074309,02,200071769.0,Aisne
02318,Folembray,FOLEMBRAY,municipality,49.5492820594,3.29319165625,02,200071769.0,Aisne
02333,Fresnes-sous-Coucy,FRESNES SOUS COUCY,municipality,49.5548078585,3.37018022508,02,200071769.0,Aisne
02363,Guny,GUNY,municipality,49.5120153085,3.26082658052,02,200071769.0,Aisne
02395,Jumencourt,JUMENCOURT,municipality,49.5122950231,3.34939792383,02,200071769.0,Aisne
02406,Landricourt,LANDRICOURT,municipality,49.505420346,3.36950507041,02,200071769.0,Aisne
02423,Leuilly-sous-Coucy,LEUILLY SOUS COUCY,municipality,49.4734455044,3.35288205414,02,200071769.0,Aisne
02478,Merlieux-et-Fouquerolles,MERLIEUX ET FOUQUEROLLES,municipality,49.5137172169,3.49932983224,02,200071769.0,Aisne
02499,Montbavin,MONTBAVIN,municipality,49.5295376592,3.51319789821,02,200071769.0,Aisne
02602,Pinon,PINON,municipality,49.488480349,3.46156583024,02,200071769.0,Aisne
02616,Pont-Saint-Mard,PONT SAINT MARD,municipality,49.493979148,3.27934093822,02,200071769.0,Aisne
02619,Prémontré,PREMONTRE,municipality,49.5493580112,3.4177638358,02,200071769.0,Aisne
02632,Quincy-Basse,QUINCY BASSE,municipality,49.5091437001,3.38465364189,02,200071769.0,Aisne
02661,Royaucourt-et-Chailvet,ROYAUCOURT ET CHAILVET,municipality,49.5119671872,3.53821206051,02,200071769.0,Aisne
02671,Saint-Aubin,SAINT AUBIN,municipality,49.5099540337,3.18837580055,02,200071769.0,Aisne
02686,Saint-Paul-aux-Bois,SAINT PAUL AUX BOIS,municipality,49.5443121228,3.20260437248,02,200071769.0,Aisne
02704,Selens,SELENS,municipality,49.4943706034,3.20586043656,02,200071769.0,Aisne
02707,Septvaux,SEPTVAUX,municipality,49.5697880929,3.38679579518,02,200071769.0,Aisne
02750,Trosly-Loire,TROSLY LOIRE,municipality,49.5175794818,3.23167717474,02,200071769.0,Aisne
02755,Urcel,URCEL,municipality,49.4940437763,3.55713233917,02,200071769.0,Aisne
02768,Vauxaillon,VAUXAILLON,municipality,49.4770651148,3.40823751638,02,200071769.0,Aisne
02786,Verneuil-sous-Coucy,VERNEUIL SOUS COUCY,municipality,49.5451146096,3.31890035764,02,200071769.0,Aisne
02834,Wissignicourt,WISSIGNICOURT,municipality,49.5301896159,3.44102073707,02,200071769.0,Aisne
02023,Armentières-sur-Ourcq,ARMENTIERES SUR OURCQ,municipality,49.1734232511,3.38789647903,02,200072031.0,Aisne
02042,Azy-sur-Marne,AZY SUR MARNE,municipality,49.0039701095,3.35913214045,02,200072031.0,Aisne
02051,Barzy-sur-Marne,BARZY SUR MARNE,municipality,49.0906196202,3.56214117254,02,200072031.0,Aisne
02053,Vallées en Champagne,VALLEES EN CHAMPAGNE,municipality,48.9896915811,3.60486686026,02,200072031.0,Aisne
02062,Belleau,BELLEAU,municipality,49.0829128265,3.30049173293,02,200072031.0,Aisne
02083,Beuvardes,BEUVARDES,municipality,49.1308547007,3.49165019107,02,200072031.0,Aisne
02085,Bézu-Saint-Germain,BEZU SAINT GERMAIN,municipality,49.1046732888,3.40812513224,02,200072031.0,Aisne
02094,Blesmes,BLESMES,municipality,49.0264919363,3.46405474705,02,200072031.0,Aisne
02098,Bonneil,BONNEIL,municipality,49.0082419817,3.3459478468,02,200072031.0,Aisne
02099,Bonnesvalyn,BONNESVALYN,municipality,49.1264049496,3.32541661771,02,200072031.0,Aisne
02105,Bouresches,BOURESCHES,municipality,49.0671787396,3.31728226934,02,200072031.0,Aisne
02114,Brasles,BRASLES,municipality,49.0567927241,3.42453409652,02,200072031.0,Aisne
02119,Brécy,BRECY,municipality,49.1398626041,3.42373097034,02,200072031.0,Aisne
02125,Brumetz,BRUMETZ,municipality,49.1103074474,3.15291445147,02,200072031.0,Aisne
02127,Bruyères-sur-Fère,BRUYERES SUR FERE,municipality,49.1996571467,3.44535846468,02,200072031.0,Aisne
02137,Bussiares,BUSSIARES,municipality,49.0765910572,3.25026191909,02,200072031.0,Aisne
02146,Celles-lès-Condé,CELLES LES CONDE,municipality,49.0148161041,3.57007423847,02,200072031.0,Aisne
02164,Le Charmel,CHARMEL,municipality,49.1121866037,3.54125960951,02,200072031.0,Aisne
02166,Chartèves,CHARTEVES,municipality,49.0898127369,3.50871838479,02,200072031.0,Aisne
02168,Château-Thierry,CHATEAU THIERRY,municipality,49.0564070801,3.38160004843,02,200072031.0,Aisne
02185,Chézy-en-Orxois,CHEZY EN ORXOIS,municipality,49.1268031885,3.16759094422,02,200072031.0,Aisne
02187,Chierry,CHIERRY,municipality,49.035155356,3.43302324278,02,200072031.0,Aisne
02193,Cierges,CIERGES,municipality,49.1648316775,3.60411788847,02,200072031.0,Aisne
02203,Coincy,COINCY,municipality,49.1632280955,3.43633795455,02,200072031.0,Aisne
02209,Condé-en-Brie,CONDE EN BRIE,municipality,49.0016101753,3.56116999962,02,200072031.0,Aisne
02213,Connigis,CONNIGIS,municipality,49.0359363932,3.53287282671,02,200072031.0,Aisne
02220,Coulonges-Cohan,COULONGES COHAN,municipality,49.1980463524,3.62776592985,02,200072031.0,Aisne
02223,Courboin,COURBOIN,municipality,48.9960917184,3.50690687861,02,200072031.0,Aisne
02225,Courchamps,COURCHAMPS,municipality,49.1164230809,3.26303714363,02,200072031.0,Aisne
02227,Courmont,COURMONT,municipality,49.1377444173,3.57546880498,02,200072031.0,Aisne
02228,Courtemont-Varennes,COURTEMONT VARENNES,municipality,49.0715288855,3.54168079771,02,200072031.0,Aisne
02239,Crézancy,CREZANCY,municipality,49.0428713757,3.51138201699,02,200072031.0,Aisne
02241,La Croix-sur-Ourcq,CROIX SUR OURCQ,municipality,49.1598010602,3.35048905306,02,200072031.0,Aisne
02271,Dravegny,DRAVEGNY,municipality,49.2391906053,3.64128453803,02,200072031.0,Aisne
02279,Épaux-Bézu,EPAUX BEZU,municipality,49.1029988371,3.35359350285,02,200072031.0,Aisne
02280,Épieds,EPIEDS,municipality,49.1045180167,3.45072347386,02,200072031.0,Aisne
02290,Essômes-sur-Marne,ESSOMES SUR MARNE,municipality,49.0341132047,3.34014174183,02,200072031.0,Aisne
02292,Étampes-sur-Marne,ETAMPES SUR MARNE,municipality,49.0317558536,3.41777664616,02,200072031.0,Aisne
02297,Étrépilly,ETREPILLY,municipality,49.0822681369,3.34802063568,02,200072031.0,Aisne
02305,Fère-en-Tardenois,FERE EN TARDENOIS,municipality,49.1875000917,3.51106425515,02,200072031.0,Aisne
02328,Fossoy,FOSSOY,municipality,49.044990122,3.48523126715,02,200072031.0,Aisne
02332,Fresnes-en-Tardenois,FRESNES EN TARDENOIS,municipality,49.1427948273,3.54893406985,02,200072031.0,Aisne
02339,Gandelu,GANDELU,municipality,49.0832089104,3.18156231552,02,200072031.0,Aisne
02347,Gland,GLAND,municipality,49.0579740538,3.45713931457,02,200072031.0,Aisne
02351,Goussancourt,GOUSSANCOURT,municipality,49.1608459229,3.65658681802,02,200072031.0,Aisne
02356,Grisolles,GRISOLLES,municipality,49.130183511,3.37217369933,02,200072031.0,Aisne
02375,Hautevesnes,HAUTEVESNES,municipality,49.1088469374,3.2356780284,02,200072031.0,Aisne
02389,Jaulgonne,JAULGONNE,municipality,49.0895236955,3.53359601877,02,200072031.0,Aisne
02411,Latilly,LATILLY,municipality,49.1538863119,3.31218468893,02,200072031.0,Aisne
02428,Licy-Clignon,LICY CLIGNON,municipality,49.102123319,3.26534900839,02,200072031.0,Aisne
02442,Loupeigne,LOUPEIGNE,municipality,49.2411071956,3.5251073823,02,200072031.0,Aisne
02458,Dhuys et Morin-en-Brie,DHUYS ET MORIN EN BRIE,municipality,48.8935786183,3.49268121283,02,200072031.0,Aisne
02462,Mareuil-en-Dôle,MAREUIL EN DOLE,municipality,49.2424552782,3.56114326739,02,200072031.0,Aisne
02484,Mézy-Moulins,MEZY MOULINS,municipality,49.0630074888,3.5122782761,02,200072031.0,Aisne
02509,Monthiers,MONTHIERS,municipality,49.1085987235,3.29437776654,02,200072031.0,Aisne
02510,Monthurel,MONTHUREL,municipality,49.0275310805,3.55187396803,02,200072031.0,Aisne
02512,Montigny-l'Allier,MONTIGNY L ALLIER,municipality,49.1221418457,3.10744372815,02,200072031.0,Aisne
02515,Montigny-lès-Condé,MONTIGNY LES CONDE,municipality,48.9830055534,3.56635546224,02,200072031.0,Aisne
02518,Montlevon,MONTLEVON,municipality,48.9627005485,3.51543798042,02,200072031.0,Aisne
02524,Mont-Saint-Père,MONT SAINT PERE,municipality,49.0816980947,3.47715449247,02,200072031.0,Aisne
02538,Nanteuil-Notre-Dame,NANTEUIL NOTRE DAME,municipality,49.1907421685,3.41207163018,02,200072031.0,Aisne
02540,Nesles-la-Montagne,NESLES LA MONTAGNE,municipality,48.9997837313,3.44587892818,02,200072031.0,Aisne
02543,Neuilly-Saint-Front,NEUILLY SAINT FRONT,municipality,49.1626366671,3.26436269893,02,200072031.0,Aisne
02554,Nogentel,NOGENTEL,municipality,49.0140758623,3.40340404208,02,200072031.0,Aisne
02590,Pargny-la-Dhuys,PARGNY LA DHUYS,municipality,48.9545509576,3.56357370593,02,200072031.0,Aisne
02595,Passy-sur-Marne,PASSY SUR MARNE,municipality,49.0663377762,3.57438808256,02,200072031.0,Aisne
02622,Priez,PRIEZ,municipality,49.1306197467,3.26280717645,02,200072031.0,Aisne
02645,Reuilly-Sauvigny,REUILLY SAUVIGNY,municipality,49.0506024106,3.56448771259,02,200072031.0,Aisne
02649,Rocourt-Saint-Martin,ROCOURT SAINT MARTIN,municipality,49.1453872803,3.3891401292,02,200072031.0,Aisne
02655,Ronchères,RONCHERES,municipality,49.1398358197,3.60245169493,02,200072031.0,Aisne
02662,Rozet-Saint-Albin,ROZET SAINT ALBIN,municipality,49.1982180685,3.29738760461,02,200072031.0,Aisne
02664,Rozoy-Bellevalle,ROZOY BELLEVALLE,municipality,48.9244622578,3.45003603667,02,200072031.0,Aisne
02677,Saint-Eugène,SAINT EUGENE,municipality,49.0155450781,3.51721331428,02,200072031.0,Aisne
02679,Saint-Gengoulph,SAINT GENGOULPH,municipality,49.1189499126,3.21526676033,02,200072031.0,Aisne
02699,Saponay,SAPONAY,municipality,49.2143831516,3.48437985358,02,200072031.0,Aisne
02712,Sergy,SERGY,municipality,49.1828178666,3.57092215608,02,200072031.0,Aisne
02713,Seringes-et-Nesles,SERINGES ET NESLES,municipality,49.2116537607,3.55885016448,02,200072031.0,Aisne
02724,Sommelans,SOMMELANS,municipality,49.135392,3.29302303663,02,200072031.0,Aisne
02744,Torcy-en-Valois,TORCY EN VALOIS,municipality,49.0828638075,3.27358839647,02,200072031.0,Aisne
02748,Trélou-sur-Marne,TRELOU SUR MARNE,municipality,49.0916773783,3.60157906913,02,200072031.0,Aisne
02781,Verdilly,VERDILLY,municipality,49.0744862502,3.42189905232,02,200072031.0,Aisne
02794,Vézilly,VEZILLY,municipality,49.1874443601,3.68274149419,02,200072031.0,Aisne
02796,Vichel-Nanteuil,VICHEL NANTEUIL,municipality,49.1822486294,3.29889935708,02,200072031.0,Aisne
02800,Viffort,VIFFORT,municipality,48.9576165601,3.46972594402,02,200072031.0,Aisne
02806,Villeneuve-sur-Fère,VILLENEUVE SUR FERE,municipality,49.1706936984,3.47593842959,02,200072031.0,Aisne
02809,Villers-Agron-Aiguizy,VILLERS AGRON AIGUIZY,municipality,49.1632072457,3.71636244573,02,200072031.0,Aisne
02816,Villers-sur-Fère,VILLERS SUR FERE,municipality,49.1715150184,3.53152683586,02,200072031.0,Aisne
02024,Arrancy,ARRANCY,municipality,49.4989016398,3.7647230005,02,200043495.0,Aisne
02028,Athies-sous-Laon,ATHIES SOUS LAON,municipality,49.5757750686,3.69006632109,02,200043495.0,Aisne
02037,Aulnois-sous-Laon,AULNOIS SOUS LAON,municipality,49.6198117499,3.60981962105,02,200043495.0,Aisne
02080,Besny-et-Loizy,BESNY ET LOIZY,municipality,49.5928792816,3.57657238799,02,200043495.0,Aisne
02088,Bièvres,BIEVRES,municipality,49.4921822965,3.7137356904,02,200043495.0,Aisne
02128,Bruyères-et-Montbérault,BRUYERES ET MONTBERAULT,municipality,49.5239615523,3.66954693798,02,200043495.0,Aisne
02132,Bucy-lès-Cerny,BUCY LES CERNY,municipality,49.5790852566,3.496908306,02,200043495.0,Aisne
02150,Cerny-en-Laonnois,CERNY EN LAONNOIS,municipality,49.4500150087,3.67982439455,02,200043495.0,Aisne
02151,Cerny-lès-Bucy,CERNY LES BUCY,municipality,49.5778658953,3.54646763896,02,200043495.0,Aisne
02153,Cessières-Suzy,CESSIERES SUZY,municipality,49.5595788079,3.50190405701,02,200043495.0,Aisne
02157,Chambry,CHAMBRY,municipality,49.5986366056,3.67200832611,02,200043495.0,Aisne
02158,Chamouille,CHAMOUILLE,municipality,49.4720646954,3.67062673062,02,200043495.0,Aisne
02177,Chérêt,CHERET,municipality,49.5141661683,3.68718851388,02,200043495.0,Aisne
02191,Chivy-lès-Étouvelles,CHIVY LES ETOUVELLES,municipality,49.5326303582,3.58562168803,02,200043495.0,Aisne
02196,Clacy-et-Thierret,CLACY ET THIERRET,municipality,49.5524137158,3.56557185412,02,200043495.0,Aisne
02205,Colligis-Crandelain,COLLIGIS CRANDELAIN,municipality,49.4666159338,3.63042181928,02,200043495.0,Aisne
02238,Crépy,CREPY,municipality,49.6082534854,3.5125070585,02,200043495.0,Aisne
02282,Eppes,EPPES,municipality,49.5523855068,3.73980858367,02,200043495.0,Aisne
02294,Étouvelles,ETOUVELLES,municipality,49.5186450995,3.58156180986,02,200043495.0,Aisne
02309,Festieux,FESTIEUX,municipality,49.5252642949,3.76013631694,02,200043495.0,Aisne
02407,Laniscourt,LANISCOURT,municipality,49.5469118723,3.53406747358,02,200043495.0,Aisne
02408,Laon,LAON,municipality,49.5679724897,3.62089561902,02,200043495.0,Aisne
02413,Laval-en-Laonnois,LAVAL EN LAONNOIS,municipality,49.5029905064,3.58758242212,02,200043495.0,Aisne
02429,Lierval,LIERVAL,municipality,49.4874867517,3.62227691789,02,200043495.0,Aisne
02471,Martigny-Courpierre,MARTIGNY COURPIERRE,municipality,49.4900405005,3.6867077549,02,200043495.0,Aisne
02489,Molinchart,MOLINCHART,municipality,49.5624802928,3.53979641476,02,200043495.0,Aisne
02497,Mons-en-Laonnois,MONS EN LAONNOIS,municipality,49.5379451828,3.55478457954,02,200043495.0,Aisne
02501,Montchâlons,MONTCHALONS,municipality,49.5131917425,3.72718965805,02,200043495.0,Aisne
02508,Monthenault,MONTHENAULT,municipality,49.4892743465,3.65592404446,02,200043495.0,Aisne
02561,Nouvion-le-Vineux,NOUVION LE VINEUX,municipality,49.5092763308,3.605351266,02,200043495.0,Aisne
02573,Orgeval,ORGEVAL,municipality,49.5041140764,3.70337016497,02,200043495.0,Aisne
02587,Parfondru,PARFONDRU,municipality,49.5385213412,3.70351915315,02,200043495.0,Aisne
02621,Presles-et-Thierny,PRESLES ET THIERNY,municipality,49.5144603614,3.62483361601,02,200043495.0,Aisne
02697,Samoussy,SAMOUSSY,municipality,49.5868706589,3.74329094453,02,200043495.0,Aisne
02765,Vaucelles-et-Beffecourt,VAUCELLES ET BEFFECOURT,municipality,49.5206900038,3.55877460724,02,200043495.0,Aisne
02791,Veslud,VESLUD,municipality,49.5387490108,3.73067663493,02,200043495.0,Aisne
02821,Vivaise,VIVAISE,municipality,49.6228688465,3.56431943267,02,200043495.0,Aisne
02824,Vorges,VORGES,municipality,49.5175796033,3.65105369026,02,200043495.0,Aisne
02001,Abbécourt,ABBECOURT,municipality,49.5991518653,3.17708232927,02,200071785.0,Aisne
02002,Achery,ACHERY,municipality,49.6936187791,3.39735632148,02,200071785.0,Aisne
02014,Amigny-Rouy,AMIGNY ROUY,municipality,49.6108275885,3.30289341579,02,200071785.0,Aisne
02016,Andelain,ANDELAIN,municipality,49.6411808161,3.3695440898,02,200071785.0,Aisne
02017,Anguilcourt-le-Sart,ANGUILCOURT LE SART,municipality,49.6940879195,3.42823182437,02,200071785.0,Aisne
02041,Autreville,AUTREVILLE,municipality,49.5860875305,3.23602708427,02,200071785.0,Aisne
02056,Beaumont-en-Beine,BEAUMONT EN BEINE,municipality,49.6874633882,3.13133369335,02,200071785.0,Aisne
02059,Beautor,BEAUTOR,municipality,49.648319958,3.33811188104,02,200071785.0,Aisne
02074,Bertaucourt-Epourdon,BERTAUCOURT EPOURDON,municipality,49.6276056573,3.39748988886,02,200071785.0,Aisne
02081,Béthancourt-en-Vaux,BETHANCOURT EN VAUX,municipality,49.6290547772,3.14064657935,02,200071785.0,Aisne
02086,Bichancourt,BICHANCOURT,municipality,49.578776546,3.21263017443,02,200071785.0,Aisne
02122,Brie,BRIE,municipality,49.5973962294,3.4733634659,02,200071785.0,Aisne
02139,Caillouël-Crépigny,CAILLOUEL CREPIGNY,municipality,49.6176055636,3.12169527347,02,200071785.0,Aisne
02145,Caumont,CAUMONT,municipality,49.6372659106,3.17347612819,02,200071785.0,Aisne
02165,Charmes,CHARMES,municipality,49.6508532429,3.38525104222,02,200071785.0,Aisne
02173,Chauny,CHAUNY,municipality,49.619880673,3.21875355041,02,200071785.0,Aisne
02207,Commenchon,COMMENCHON,municipality,49.6416913377,3.15095437349,02,200071785.0,Aisne
02212,Condren,CONDREN,municipality,49.6370236167,3.27726632135,02,200071785.0,Aisne
02222,Courbes,COURBES,municipality,49.6815888779,3.46004834981,02,200071785.0,Aisne
02260,Danizy,DANIZY,municipality,49.6665738585,3.40089557013,02,200071785.0,Aisne
02262,Deuillet,DEUILLET,municipality,49.6285991184,3.36051598302,02,200071785.0,Aisne
02304,La Fère,FERE,municipality,49.6662828073,3.36938834693,02,200071785.0,Aisne
02329,Fourdrain,FOURDRAIN,municipality,49.6194184451,3.46049121118,02,200071785.0,Aisne
02335,Fressancourt,FRESSANCOURT,municipality,49.6284783975,3.42727910427,02,200071785.0,Aisne
02336,Frières-Faillouël,FRIERES FAILLOUEL,municipality,49.6835552621,3.23680430341,02,200071785.0,Aisne
02362,Guivry,GUIVRY,municipality,49.651625761,3.12103476493,02,200071785.0,Aisne
02431,Liez,LIEZ,municipality,49.6923509874,3.30017368966,02,200071785.0,Aisne
02456,Manicamp,MANICAMP,municipality,49.5650654162,3.17962639988,02,200071785.0,Aisne
02461,Marest-Dampcourt,MAREST DAMPCOURT,municipality,49.59443854,3.14627124688,02,200071785.0,Aisne
02473,Mayot,MAYOT,municipality,49.7090117255,3.39804766077,02,200071785.0,Aisne
02474,Mennessis,MENNESSIS,municipality,49.6918385873,3.27543313236,02,200071785.0,Aisne
02492,Monceau-lès-Leups,MONCEAU LES LEUPS,municipality,49.6617789272,3.48549133203,02,200071785.0,Aisne
02542,Neuflieux,NEUFLIEUX,municipality,49.6163788231,3.15996849471,02,200071785.0,Aisne
02546,La Neuville-en-Beine,NEUVILLE EN BEINE,municipality,49.6762298475,3.15600362361,02,200071785.0,Aisne
02566,Ognes,OGNES,municipality,49.6136864694,3.19142372904,02,200071785.0,Aisne
02599,Pierremande,PIERREMANDE,municipality,49.566550412,3.25836777343,02,200071785.0,Aisne
02631,Quierzy,QUIERZY,municipality,49.5641090409,3.14613795931,02,200071785.0,Aisne
02651,Rogécourt,ROGECOURT,municipality,49.6492919859,3.41550074354,02,200071785.0,Aisne
02680,Saint-Gobain,SAINT GOBAIN,municipality,49.5953887213,3.39411143672,02,200071785.0,Aisne
02685,Saint-Nicolas-aux-Bois,SAINT NICOLAS AUX BOIS,municipality,49.5970302282,3.43898003392,02,200071785.0,Aisne
02716,Servais,SERVAIS,municipality,49.6194083182,3.34197325752,02,200071785.0,Aisne
